[{"nom":"Rothau","latitude":48.4590026,"longitude":7.2074902,"region":"Grand Est","nombrePOI":251},{"nom":"Schirmeck - La Broque","latitude":48.47973,"longitude":7.21594,"region":"Grand Est","nombrePOI":244},{"nom":"Molsheim","latitude":48.53705,"longitude":7.50044,"region":"Grand Est","nombrePOI":202},{"nom":"Dachstein","latitude":48.5428546,"longitude":7.5330038,"region":"Grand Est","nombrePOI":195},{"nom":"Bischoffsheim","latitude":48.48701,"longitude":7.49772,"region":"Grand Est","nombrePOI":190},{"nom":"Rosheim","latitude":48.50525,"longitude":7.49093,"region":"Grand Est","nombrePOI":184},{"nom":"Dorlisheim","latitude":48.5249915,"longitude":7.4930546,"region":"Grand Est","nombrePOI":184},{"nom":"Willer-sur-Thur","latitude":47.8425494,"longitude":7.0693196,"region":"Grand Est","nombrePOI":178},{"nom":"Bitschwiller-lès-Thann","latitude":47.8273719,"longitude":7.078514,"region":"Grand Est","nombrePOI":166},{"nom":"Obernai","latitude":48.46219,"longitude":7.48881,"region":"Grand Est","nombrePOI":161},{"nom":"Moosch","latitude":47.8607454,"longitude":7.0507631,"region":"Grand Est","nombrePOI":151},{"nom":"Thann Centre","latitude":47.8099229,"longitude":7.101046,"region":"Grand Est","nombrePOI":150},{"nom":"Thann Saint-Jacques","latitude":47.8133155,"longitude":7.0938473,"region":"Grand Est","nombrePOI":150},{"nom":"Duttlenheim","latitude":48.5453531,"longitude":7.5661529,"region":"Grand Est","nombrePOI":150},{"nom":"Thann","latitude":47.8088208,"longitude":7.1069795,"region":"Grand Est","nombrePOI":146},{"nom":"Bollwiller","latitude":47.8569694,"longitude":7.2672555,"region":"Grand Est","nombrePOI":145},{"nom":"Saint-Marcel","latitude":43.28818,"longitude":5.4671155,"region":"Provence-Alpes-Côte d'Azur","nombrePOI":143},{"nom":"Urmatt","latitude":48.5257763,"longitude":7.3385385,"region":"Grand Est","nombrePOI":138},{"nom":"Marseille Saint-Charles","latitude":43.302666,"longitude":5.380407,"region":"Provence-Alpes-Côte d'Azur","nombrePOI":137},{"nom":"Staffelfelden","latitude":47.8279612,"longitude":7.2651657,"region":"Grand Est","nombrePOI":133},{"nom":"Vieux-Thann","latitude":47.8058505,"longitude":7.1194904,"region":"Grand Est","nombrePOI":132},{"nom":"Morez","latitude":46.5262166,"longitude":6.023578,"region":"Bourgogne-Franche-Comté","nombrePOI":132},{"nom":"Marseille Blancarde","latitude":43.29614391,"longitude":5.406559,"region":"Provence-Alpes-Côte d'Azur","nombrePOI":131},{"nom":"Raedersheim","latitude":47.8869059,"longitude":7.2840467,"region":"Grand Est","nombrePOI":129},{"nom":"Morbier","latitude":46.5392164,"longitude":6.0176446,"region":"Bourgogne-Franche-Comté","nombrePOI":128},{"nom":"La Pomme","latitude":43.2905165,"longitude":5.4413152,"region":"Provence-Alpes-Côte d'Azur","nombrePOI":127},{"nom":"Duppigheim","latitude":48.5439674,"longitude":7.5868091,"region":"Grand Est","nombrePOI":126},{"nom":"Merxheim","latitude":47.9126413,"longitude":7.3022795,"region":"Grand Est","nombrePOI":125},{"nom":"Vieux-Thann Zone Industrielle","latitude":47.8020615,"longitude":7.1326428,"region":"Grand Est","nombrePOI":123},{"nom":"Sainte-Marthe en Provence","latitude":43.3392414,"longitude":5.390412,"region":"Provence-Alpes-Côte d'Azur","nombrePOI":123},{"nom":"La Barasse","latitude":43.2858384,"longitude":5.4845101,"region":"Provence-Alpes-Côte d'Azur","nombrePOI":120},{"nom":"Moûtiers - Salins - Brides-les-Bains","latitude":45.486344,"longitude":6.531425,"region":"Auvergne-Rhône-Alpes","nombrePOI":120},{"nom":"Saint-Laurent-en-Grandvaux","latitude":46.5747975,"longitude":5.9512119,"region":"Bourgogne-Franche-Comté","nombrePOI":114},{"nom":"Morre","latitude":47.2259417,"longitude":6.0673029,"region":"Bourgogne-Franche-Comté","nombrePOI":113},{"nom":"L'Estaque","latitude":43.363628,"longitude":5.3213598,"region":"Provence-Alpes-Côte d'Azur","nombrePOI":109},{"nom":"Saint-Antoine","latitude":43.3695993,"longitude":5.3578102,"region":"Provence-Alpes-Côte d'Azur","nombrePOI":104},{"nom":"Saône","latitude":47.2097669,"longitude":6.1013089,"region":"Bourgogne-Franche-Comté","nombrePOI":104},{"nom":"Rouffach","latitude":47.9602481,"longitude":7.312455,"region":"Grand Est","nombrePOI":103},{"nom":"Gunsbach - Griesbach","latitude":48.0414908,"longitude":7.1748407,"region":"Grand Est","nombrePOI":100},{"nom":"Muhlbach-sur-Munster","latitude":48.0246077,"longitude":7.0875666,"region":"Grand Est","nombrePOI":100},{"nom":"Metzeral","latitude":48.0133301,"longitude":7.0733383,"region":"Grand Est","nombrePOI":100},{"nom":"La Chaumusse - Fort-du-Plasne","latitude":46.6048753,"longitude":5.9613342,"region":"Bourgogne-Franche-Comté","nombrePOI":99},{"nom":"Breitenbach","latitude":48.0285326,"longitude":7.1040522,"region":"Grand Est","nombrePOI":98},{"nom":"Graffenwald","latitude":47.7808232,"longitude":7.2247908,"region":"Grand Est","nombrePOI":96},{"nom":"Munster","latitude":48.0383438,"longitude":7.1341728,"region":"Grand Est","nombrePOI":96},{"nom":"Munster Badischhof","latitude":48.0390754,"longitude":7.1528861,"region":"Grand Est","nombrePOI":94},{"nom":"Gertwiller","latitude":48.4133621,"longitude":7.4663166,"region":"Grand Est","nombrePOI":89},{"nom":"Saales","latitude":48.3471556,"longitude":7.1103726,"region":"Grand Est","nombrePOI":89},{"nom":"Dambach-la-Ville","latitude":48.3216345,"longitude":7.4355565,"region":"Grand Est","nombrePOI":88},{"nom":"Wihr-au-Val - Soultzbach","latitude":48.0460522,"longitude":7.2095351,"region":"Grand Est","nombrePOI":88},{"nom":"Goxwiller","latitude":48.4327551,"longitude":7.4787296,"region":"Grand Est","nombrePOI":87},{"nom":"Turckheim","latitude":48.0856288,"longitude":7.279466,"region":"Grand Est","nombrePOI":87},{"nom":"Barr","latitude":48.4032933,"longitude":7.4565189,"region":"Grand Est","nombrePOI":84},{"nom":"Luttenbach-près-Munster","latitude":48.0352559,"longitude":7.1186307,"region":"Grand Est","nombrePOI":84},{"nom":"Saint-Gilles Lycée Haut-Rhin","latitude":48.0758611,"longitude":7.2609746,"region":"Grand Est","nombrePOI":84},{"nom":"Eichhoffen","latitude":48.3824829,"longitude":7.4495524,"region":"Grand Est","nombrePOI":81},{"nom":"Bègles","latitude":44.7995389,"longitude":-0.5552495,"region":"Nouvelle-Aquitaine","nombrePOI":80},{"nom":"Entzheim Aéroport","latitude":48.54699,"longitude":7.62794,"region":"Grand Est","nombrePOI":79},{"nom":"Scherwiller","latitude":48.2869344,"longitude":7.4301867,"region":"Grand Est","nombrePOI":77},{"nom":"Niolon","latitude":43.340223,"longitude":5.2569415,"region":"Provence-Alpes-Côte d'Azur","nombrePOI":77},{"nom":"Sélestat","latitude":48.2601166,"longitude":7.443278,"region":"Grand Est","nombrePOI":75},{"nom":"Bordeaux Saint-Jean","latitude":44.825873,"longitude":-0.556697,"region":"Nouvelle-Aquitaine","nombrePOI":75},{"nom":"Franois","latitude":47.2273609,"longitude":5.937498,"region":"Bourgogne-Franche-Comté","nombrePOI":74},{"nom":"Villenave-d'Ornon","latitude":44.7683428,"longitude":-0.5472574,"region":"Nouvelle-Aquitaine","nombrePOI":73},{"nom":"Les Moussoux","latitude":45.9166347,"longitude":6.8589899,"region":"Auvergne-Rhône-Alpes","nombrePOI":72},{"nom":"Bedous","latitude":42.99589,"longitude":-0.60348,"region":"Nouvelle-Aquitaine","nombrePOI":72},{"nom":"Étival-Clairefontaine","latitude":48.3671987,"longitude":6.8769607,"region":"Grand Est","nombrePOI":71},{"nom":"Epfig","latitude":48.3637643,"longitude":7.4504053,"region":"Grand Est","nombrePOI":71},{"nom":"Saint-Claude","latitude":46.3899539,"longitude":5.8603471,"region":"Bourgogne-Franche-Comté","nombrePOI":71},{"nom":"Metz","latitude":49.109545,"longitude":6.176593,"region":"Grand Est","nombrePOI":70},{"nom":"Cenon","latitude":44.8563465,"longitude":-0.5336487,"region":"Nouvelle-Aquitaine","nombrePOI":70},{"nom":"Danjoutin","latitude":47.6175,"longitude":6.86919,"region":"Grand Est","nombrePOI":69},{"nom":"Aubagne","latitude":43.296045,"longitude":5.56658,"region":"Provence-Alpes-Côte d'Azur","nombrePOI":69},{"nom":"Mérignac Arlac","latitude":44.8265601,"longitude":-0.6261402,"region":"Nouvelle-Aquitaine","nombrePOI":69},{"nom":"Bruyères","latitude":48.204895,"longitude":6.7187638,"region":"Grand Est","nombrePOI":69},{"nom":"Logelbach","latitude":48.087299,"longitude":7.3206082,"region":"Grand Est","nombrePOI":68},{"nom":"Le Mans","latitude":47.995689,"longitude":0.192578,"region":"Pays de la Loire","nombrePOI":67},{"nom":"Belfort - Montbéliard TGV","latitude":47.585937,"longitude":6.897687,"region":"Grand Est","nombrePOI":67},{"nom":"Les Pélerins","latitude":45.9125671,"longitude":6.8472858,"region":"Auvergne-Rhône-Alpes","nombrePOI":67},{"nom":"Arches","latitude":48.1198133,"longitude":6.5283085,"region":"Grand Est","nombrePOI":67},{"nom":"Hettange-Grande","latitude":49.4076754,"longitude":6.1566738,"region":"Grand Est","nombrePOI":67},{"nom":"Martigues","latitude":43.3929209,"longitude":5.0257804,"region":"Provence-Alpes-Côte d'Azur","nombrePOI":67},{"nom":"Montbéliard","latitude":47.5105086,"longitude":6.8013763,"region":"Grand Est","nombrePOI":66},{"nom":"Saint-Dié-des-Vosges","latitude":48.282225,"longitude":6.948656,"region":"Grand Est","nombrePOI":66},{"nom":"Montmorillon","latitude":46.4174979,"longitude":0.8737467,"region":"Nouvelle-Aquitaine","nombrePOI":66},{"nom":"Lussac-les-Châteaux","latitude":46.4051106,"longitude":0.7186918,"region":"Nouvelle-Aquitaine","nombrePOI":66},{"nom":"Taconnaz","latitude":45.8992065,"longitude":6.8258755,"region":"Auvergne-Rhône-Alpes","nombrePOI":66},{"nom":"Niederbronn-les-Bains","latitude":48.9523989,"longitude":7.6341348,"region":"Grand Est","nombrePOI":66},{"nom":"Cassis","latitude":43.23406,"longitude":5.553055,"region":"Provence-Alpes-Côte d'Azur","nombrePOI":65},{"nom":"Ars-sur-Moselle","latitude":49.0744745,"longitude":6.0776461,"region":"Grand Est","nombrePOI":65},{"nom":"Saint-Émilion","latitude":44.8811665,"longitude":-0.1592003,"region":"Occitanie","nombrePOI":64},{"nom":"Les Bossons","latitude":45.9067455,"longitude":6.8391969,"region":"Auvergne-Rhône-Alpes","nombrePOI":64},{"nom":"Colmar Mésanges","latitude":48.0860048,"longitude":7.3336703,"region":"Grand Est","nombrePOI":64},{"nom":"Le Mans Hôpital-Université","latitude":48.014871,"longitude":0.17445113,"region":"Pays de la Loire","nombrePOI":63},{"nom":"Pessac","latitude":44.80461,"longitude":-0.63185,"region":"Nouvelle-Aquitaine","nombrePOI":63},{"nom":"Servoz","latitude":45.9244592,"longitude":6.763444,"region":"Auvergne-Rhône-Alpes","nombrePOI":63},{"nom":"La Couronne Carro","latitude":43.3398078,"longitude":5.0517077,"region":"Provence-Alpes-Côte d'Azur","nombrePOI":63},{"nom":"Sausset-les-Pins","latitude":43.332864,"longitude":5.110001,"region":"Provence-Alpes-Côte d'Azur","nombrePOI":63},{"nom":"Lutzelbourg","latitude":48.7299065,"longitude":7.2516808,"region":"Grand Est","nombrePOI":63},{"nom":"Thionville","latitude":49.353931,"longitude":6.169543,"region":"Grand Est","nombrePOI":62},{"nom":"Ogeu-les-Bains","latitude":43.153939,"longitude":-0.5076467,"region":"Nouvelle-Aquitaine","nombrePOI":62},{"nom":"Royan","latitude":45.625886,"longitude":-1.016703,"region":"Nouvelle-Aquitaine","nombrePOI":62},{"nom":"Reichshoffen","latitude":48.9310582,"longitude":7.658132,"region":"Grand Est","nombrePOI":62},{"nom":"Bas Évette","latitude":47.6810089,"longitude":6.8068494,"region":"Grand Est","nombrePOI":61},{"nom":"Colmar Saint-Joseph","latitude":48.0816399,"longitude":7.3453397,"region":"Grand Est","nombrePOI":61},{"nom":"Peltre","latitude":49.073877,"longitude":6.2220476,"region":"Grand Est","nombrePOI":60},{"nom":"Colmar","latitude":48.073201,"longitude":7.346967,"region":"Grand Est","nombrePOI":60},{"nom":"Vaudagne","latitude":45.9088517,"longitude":6.7726673,"region":"Auvergne-Rhône-Alpes","nombrePOI":60},{"nom":"Mâcon Loché TGV","latitude":46.282884,"longitude":4.778876,"region":"Bourgogne-Franche-Comté","nombrePOI":59},{"nom":"Les Houches","latitude":45.8935639,"longitude":6.796924,"region":"Auvergne-Rhône-Alpes","nombrePOI":59},{"nom":"Viaduc Sainte-Marie","latitude":45.897096,"longitude":6.7850134,"region":"Auvergne-Rhône-Alpes","nombrePOI":59},{"nom":"Le Bugue","latitude":44.9056892,"longitude":0.942795,"region":"Occitanie","nombrePOI":59},{"nom":"Lurbe-Saint-Christau","latitude":43.12099,"longitude":-0.60408,"region":"Nouvelle-Aquitaine","nombrePOI":59},{"nom":"Sarrance","latitude":43.0496,"longitude":-0.599962,"region":"Nouvelle-Aquitaine","nombrePOI":59},{"nom":"Croix Sainte","latitude":43.4088317,"longitude":5.0196445,"region":"Provence-Alpes-Côte d'Azur","nombrePOI":59},{"nom":"Saverne","latitude":48.7444606,"longitude":7.3620802,"region":"Grand Est","nombrePOI":58},{"nom":"Bruges","latitude":44.8870124,"longitude":-0.609445,"region":"Nouvelle-Aquitaine","nombrePOI":58},{"nom":"Gundershoffen","latitude":48.905261,"longitude":7.6535345,"region":"Grand Est","nombrePOI":58},{"nom":"Ebersheim","latitude":48.3099953,"longitude":7.494471,"region":"Grand Est","nombrePOI":57},{"nom":"Crêches-sur-Saône","latitude":46.2461762,"longitude":4.7840233,"region":"Bourgogne-Franche-Comté","nombrePOI":57},{"nom":"Épinal","latitude":48.178005,"longitude":6.441787,"region":"Grand Est","nombrePOI":57},{"nom":"Trois Chênes","latitude":47.6480822,"longitude":6.8462281,"region":"Grand Est","nombrePOI":57},{"nom":"Mamirolle","latitude":47.1998712,"longitude":6.1617411,"region":"Bourgogne-Franche-Comté","nombrePOI":57},{"nom":"Mâcon","latitude":46.302572,"longitude":4.824887,"region":"Bourgogne-Franche-Comté","nombrePOI":56},{"nom":"Mouy - Bury","latitude":49.32045,"longitude":2.32635,"region":"Hauts-de-France","nombrePOI":56},{"nom":"La Clayette - Baudemont","latitude":46.2881469,"longitude":4.2984195,"region":"Bourgogne-Franche-Comté","nombrePOI":55},{"nom":"La Penne-sur-Huveaune","latitude":43.2846765,"longitude":5.5155698,"region":"Provence-Alpes-Côte d'Azur","nombrePOI":55},{"nom":"Pau","latitude":43.291762,"longitude":-0.369626,"region":"Nouvelle-Aquitaine","nombrePOI":55},{"nom":"Angoulême","latitude":45.653572,"longitude":0.164608,"region":"Nouvelle-Aquitaine","nombrePOI":55},{"nom":"La Redonne Ensuès","latitude":43.33447,"longitude":5.1975675,"region":"Provence-Alpes-Côte d'Azur","nombrePOI":55},{"nom":"Port-de-Bouc","latitude":43.4071317,"longitude":4.9846006,"region":"Provence-Alpes-Côte d'Azur","nombrePOI":55},{"nom":"Wingen-sur-Moder","latitude":48.9200646,"longitude":7.3811114,"region":"Grand Est","nombrePOI":54},{"nom":"Hermes - Berthecourt","latitude":49.3544055,"longitude":2.2416554,"region":"Hauts-de-France","nombrePOI":54},{"nom":"Niort","latitude":46.319491,"longitude":-0.454639,"region":"Nouvelle-Aquitaine","nombrePOI":53},{"nom":"Saint-Cyprien","latitude":44.8632733,"longitude":1.0434666,"region":"Occitanie","nombrePOI":52},{"nom":"Bassens","latitude":44.9012933,"longitude":-0.5223144,"region":"Nouvelle-Aquitaine","nombrePOI":52},{"nom":"L'Hôpital-du-Grosbois","latitude":47.1691016,"longitude":6.2130861,"region":"Bourgogne-Franche-Comté","nombrePOI":52},{"nom":"Croix du Prince","latitude":43.2857104,"longitude":-0.3791261,"region":"Nouvelle-Aquitaine","nombrePOI":51},{"nom":"Fos-sur-Mer","latitude":43.428029,"longitude":4.974579,"region":"Provence-Alpes-Côte d'Azur","nombrePOI":51},{"nom":"Dannemarie","latitude":47.6275771,"longitude":7.124907,"region":"Grand Est","nombrePOI":50},{"nom":"Uckange","latitude":49.3032605,"longitude":6.1567735,"region":"Grand Est","nombrePOI":50},{"nom":"Mertzwiller","latitude":48.872013,"longitude":7.6781895,"region":"Grand Est","nombrePOI":50},{"nom":"Sarreguemines","latitude":49.1073357,"longitude":7.0686398,"region":"Grand Est","nombrePOI":49},{"nom":"Saint-Jean-de-Luz - Ciboure","latitude":43.385838,"longitude":-1.66122,"region":"Nouvelle-Aquitaine","nombrePOI":49},{"nom":"Vélines","latitude":44.8520145,"longitude":0.1036584,"region":"Occitanie","nombrePOI":49},{"nom":"Saujon","latitude":45.6665019,"longitude":-0.9300187,"region":"Nouvelle-Aquitaine","nombrePOI":49},{"nom":"Carry-le-Rouet","latitude":43.336592,"longitude":5.153594,"region":"Provence-Alpes-Côte d'Azur","nombrePOI":49},{"nom":"Cadaujac","latitude":44.7520628,"longitude":-0.5376186,"region":"Nouvelle-Aquitaine","nombrePOI":49},{"nom":"Sainte-Eulalie - Carbon-Blanc","latitude":44.8978327,"longitude":-0.4939737,"region":"Nouvelle-Aquitaine","nombrePOI":49},{"nom":"Marsac","latitude":46.0941348,"longitude":1.585556,"region":"Nouvelle-Aquitaine","nombrePOI":49},{"nom":"Le Pallet","latitude":47.143831,"longitude":-1.346898,"region":"Pays de la Loire","nombrePOI":48},{"nom":"Altkirch","latitude":47.6270174,"longitude":7.2392493,"region":"Grand Est","nombrePOI":48},{"nom":"Morvillars","latitude":47.54952,"longitude":6.93511,"region":"Grand Est","nombrePOI":48},{"nom":"Vichy","latitude":46.126979,"longitude":3.430448,"region":"Auvergne-Rhône-Alpes","nombrePOI":47},{"nom":"Blainville - Damelevières","latitude":48.564971,"longitude":6.386953,"region":"Grand Est","nombrePOI":47},{"nom":"Oloron-Sainte-Marie","latitude":43.1947669,"longitude":-0.6122826,"region":"Nouvelle-Aquitaine","nombrePOI":47},{"nom":"Buzy en Béarn","latitude":43.1482723,"longitude":-0.4558864,"region":"Nouvelle-Aquitaine","nombrePOI":47},{"nom":"Gan","latitude":43.2335932,"longitude":-0.391462,"region":"Nouvelle-Aquitaine","nombrePOI":47},{"nom":"La Haie-Fouassière","latitude":47.1615899,"longitude":-1.392195,"region":"Pays de la Loire","nombrePOI":46},{"nom":"Langres","latitude":47.8769474,"longitude":5.3444064,"region":"Grand Est","nombrePOI":46},{"nom":"Blanquefort","latitude":44.917556,"longitude":-0.62392,"region":"Nouvelle-Aquitaine","nombrePOI":46},{"nom":"Tieffenbach - Struth","latitude":48.9062169,"longitude":7.25527,"region":"Grand Est","nombrePOI":46},{"nom":"Champagné","latitude":48.0197118,"longitude":0.3352253,"region":"Pays de la Loire","nombrePOI":46},{"nom":"Bidos","latitude":43.17892,"longitude":-0.6069,"region":"Nouvelle-Aquitaine","nombrePOI":46},{"nom":"La Baule-Escoublac","latitude":47.28869,"longitude":-2.389102,"region":"Bretagne","nombrePOI":46},{"nom":"Varennes-sur-Allier","latitude":46.3154922,"longitude":3.3941783,"region":"Bourgogne-Franche-Comté","nombrePOI":45},{"nom":"Siorac-en-Périgord","latitude":44.8197409,"longitude":0.9844566,"region":"Occitanie","nombrePOI":45},{"nom":"Chantilly - Gouvieux","latitude":49.18724,"longitude":2.45979,"region":"Île-de-France","nombrePOI":45},{"nom":"Morteau","latitude":47.053727,"longitude":6.604653,"region":"Bourgogne-Franche-Comté","nombrePOI":45},{"nom":"Montataire","latitude":49.2510365,"longitude":2.4362155,"region":"Hauts-de-France","nombrePOI":45},{"nom":"Héricourt","latitude":47.5729701,"longitude":6.7691977,"region":"Grand Est","nombrePOI":44},{"nom":"Creil","latitude":49.263757,"longitude":2.4692439,"region":"Hauts-de-France","nombrePOI":44},{"nom":"Saumur","latitude":47.269,"longitude":-0.07136,"region":"Pays de la Loire","nombrePOI":44},{"nom":"La Ménitré","latitude":47.397422,"longitude":-0.275818,"region":"Pays de la Loire","nombrePOI":44},{"nom":"Bischwiller","latitude":48.765753,"longitude":7.8516536,"region":"Grand Est","nombrePOI":44},{"nom":"Saint-Nazaire","latitude":47.286412,"longitude":-2.211096,"region":"Bretagne","nombrePOI":44},{"nom":"Bergerac","latitude":44.857061,"longitude":0.489174,"region":"Occitanie","nombrePOI":44},{"nom":"Béning-lès-Saint-Avold","latitude":49.1379541,"longitude":6.8282982,"region":"Grand Est","nombrePOI":44},{"nom":"Vieilleville","latitude":46.0910959,"longitude":1.6736439,"region":"Nouvelle-Aquitaine","nombrePOI":44},{"nom":"Rodez","latitude":44.362633,"longitude":2.58056,"region":"Auvergne-Rhône-Alpes","nombrePOI":43},{"nom":"Bédarieux","latitude":43.6086972,"longitude":3.1495688,"region":"Occitanie","nombrePOI":43},{"nom":"Saint-Germain-des-Fossés","latitude":46.209185,"longitude":3.430614,"region":"Bourgogne-Franche-Comté","nombrePOI":43},{"nom":"Saint-Leu-d'Esserent","latitude":49.2140819,"longitude":2.4177845,"region":"Île-de-France","nombrePOI":43},{"nom":"Coarraze - Nay","latitude":43.1818351,"longitude":-0.2416429,"region":"Occitanie","nombrePOI":43},{"nom":"Trouville - Deauville","latitude":49.360005,"longitude":0.084167,"region":"Normandie","nombrePOI":43},{"nom":"Bugeat","latitude":45.6005968,"longitude":1.9248147,"region":"Nouvelle-Aquitaine","nombrePOI":43},{"nom":"Chedde","latitude":45.9263464,"longitude":6.7197662,"region":"Auvergne-Rhône-Alpes","nombrePOI":43},{"nom":"Cholet","latitude":47.065698,"longitude":-0.869583,"region":"Pays de la Loire","nombrePOI":42},{"nom":"La Bohalle","latitude":47.4342356,"longitude":-0.4000426,"region":"Pays de la Loire","nombrePOI":42},{"nom":"Tulle","latitude":45.258725,"longitude":1.756467,"region":"Nouvelle-Aquitaine","nombrePOI":42},{"nom":"Montreux-Vieux","latitude":47.6178576,"longitude":7.0253947,"region":"Grand Est","nombrePOI":42},{"nom":"Montbizot","latitude":48.151513,"longitude":0.1908607,"region":"Pays de la Loire","nombrePOI":42},{"nom":"Saint-Sulpice - Auteuil","latitude":49.3473824,"longitude":2.1164133,"region":"Hauts-de-France","nombrePOI":42},{"nom":"Saint-Denis-des-Murs","latitude":45.7889106,"longitude":1.5514368,"region":"Nouvelle-Aquitaine","nombrePOI":42},{"nom":"Penhoët","latitude":47.2907444,"longitude":-2.2008664,"region":"Bretagne","nombrePOI":42},{"nom":"Meymac","latitude":45.5302313,"longitude":2.1640905,"region":"Nouvelle-Aquitaine","nombrePOI":42},{"nom":"Saint-Rome-de-Cernon","latitude":44.013981,"longitude":2.9673744,"region":"Occitanie","nombrePOI":41},{"nom":"Précy-sur-Oise","latitude":49.2033492,"longitude":2.3764638,"region":"Île-de-France","nombrePOI":41},{"nom":"Conlie","latitude":48.1272909,"longitude":-0.0113736,"region":"Pays de la Loire","nombrePOI":41},{"nom":"Sillé-le-Guillaume","latitude":48.1818735,"longitude":-0.1289696,"region":"Pays de la Loire","nombrePOI":41},{"nom":"Gorges","latitude":47.1001487,"longitude":-1.3058778,"region":"Pays de la Loire","nombrePOI":41},{"nom":"Illfurth","latitude":47.6764322,"longitude":7.2685712,"region":"Grand Est","nombrePOI":41},{"nom":"Saint-Priest-Taurion","latitude":45.8872383,"longitude":1.4002297,"region":"Nouvelle-Aquitaine","nombrePOI":41},{"nom":"Luc-la-Primaube","latitude":44.2913982,"longitude":2.5544751,"region":"Auvergne-Rhône-Alpes","nombrePOI":41},{"nom":"Briare","latitude":47.6464312,"longitude":2.7337154,"region":"Centre-Val de Loire","nombrePOI":41},{"nom":"Pornichet","latitude":47.2705354,"longitude":-2.3445765,"region":"Pays de la Loire","nombrePOI":41},{"nom":"La Possonnière","latitude":47.3713848,"longitude":-0.6917009,"region":"Pays de la Loire","nombrePOI":41},{"nom":"Kogenheim","latitude":48.3389532,"longitude":7.5353085,"region":"Grand Est","nombrePOI":40},{"nom":"Saint-Vallier sur Rhône","latitude":45.186395,"longitude":4.81439,"region":"Auvergne-Rhône-Alpes","nombrePOI":40},{"nom":"Saint-Germain-les-Belles","latitude":45.6098703,"longitude":1.4800397,"region":"Nouvelle-Aquitaine","nombrePOI":40},{"nom":"Raon-l'Étape","latitude":48.404002,"longitude":6.837302,"region":"Grand Est","nombrePOI":40},{"nom":"Orléans","latitude":47.90796,"longitude":1.904666,"region":"Centre-Val de Loire","nombrePOI":40},{"nom":"Pas des Lanciers","latitude":43.409655,"longitude":5.253822,"region":"Provence-Alpes-Côte d'Azur","nombrePOI":40},{"nom":"Monsempron-Libos","latitude":44.486631,"longitude":0.9412277,"region":"Occitanie","nombrePOI":40},{"nom":"Wissembourg","latitude":49.0318895,"longitude":7.9501435,"region":"Grand Est","nombrePOI":40},{"nom":"Grandvillars","latitude":47.53763,"longitude":6.9785,"region":"Grand Est","nombrePOI":40},{"nom":"Gilley","latitude":47.0500626,"longitude":6.4925676,"region":"Bourgogne-Franche-Comté","nombrePOI":40},{"nom":"Herrlisheim-près-Colmar","latitude":48.0166417,"longitude":7.3206381,"region":"Grand Est","nombrePOI":40},{"nom":"Rosières-aux-Salines","latitude":48.60563,"longitude":6.350457,"region":"Grand Est","nombrePOI":40},{"nom":"Les Rosiers-sur-Loire","latitude":47.3625386,"longitude":-0.2205371,"region":"Pays de la Loire","nombrePOI":39},{"nom":"Steinbourg","latitude":48.7635292,"longitude":7.416299,"region":"Grand Est","nombrePOI":39},{"nom":"Domfront-en-Champagne","latitude":48.1076766,"longitude":0.0262592,"region":"Pays de la Loire","nombrePOI":39},{"nom":"Kurtzenhouse","latitude":48.741862,"longitude":7.8130449,"region":"Grand Est","nombrePOI":39},{"nom":"Les Aubrais","latitude":47.926801,"longitude":1.906629,"region":"Centre-Val de Loire","nombrePOI":39},{"nom":"Moulis - Listrac","latitude":45.0840273,"longitude":-0.7447365,"region":"Nouvelle-Aquitaine","nombrePOI":39},{"nom":"Arbois","latitude":46.912509,"longitude":5.7648273,"region":"Bourgogne-Franche-Comté","nombrePOI":39},{"nom":"Trémolat","latitude":44.8625105,"longitude":0.8303278,"region":"Occitanie","nombrePOI":39},{"nom":"Ussel","latitude":45.5574383,"longitude":2.3143439,"region":"Auvergne-Rhône-Alpes","nombrePOI":39},{"nom":"Auffay","latitude":49.716044,"longitude":1.098441,"region":"Normandie","nombrePOI":39},{"nom":"Cires-lès-Mello","latitude":49.2717956,"longitude":2.3601903,"region":"Hauts-de-France","nombrePOI":39},{"nom":"Ambazac","latitude":45.9529056,"longitude":1.406501,"region":"Nouvelle-Aquitaine","nombrePOI":39},{"nom":"Mont-sur-Meurthe","latitude":48.5599456,"longitude":6.4496444,"region":"Grand Est","nombrePOI":39},{"nom":"Le Bousquet-d'Orb","latitude":43.6912097,"longitude":3.1689379,"region":"Occitanie","nombrePOI":38},{"nom":"Revin","latitude":49.938756,"longitude":4.642536,"region":"Grand Est","nombrePOI":38},{"nom":"Saint-Jean-Pied-de-Port","latitude":43.1679394,"longitude":-1.2380129,"region":"Nouvelle-Aquitaine","nombrePOI":38},{"nom":"Agen","latitude":44.208311,"longitude":0.620932,"region":"Occitanie","nombrePOI":38},{"nom":"Vertou","latitude":47.1861428,"longitude":-1.4780052,"region":"Pays de la Loire","nombrePOI":38},{"nom":"Donchery","latitude":49.6981267,"longitude":4.8747529,"region":"Grand Est","nombrePOI":38},{"nom":"Lunéville","latitude":48.588233,"longitude":6.49727,"region":"Grand Est","nombrePOI":38},{"nom":"Agde","latitude":43.31728,"longitude":3.466203,"region":"Occitanie","nombrePOI":38},{"nom":"La Hume","latitude":44.639879,"longitude":-1.116,"region":"Nouvelle-Aquitaine","nombrePOI":38},{"nom":"Yvetot","latitude":49.622035,"longitude":0.750115,"region":"Normandie","nombrePOI":38},{"nom":"Mouchard","latitude":46.976911,"longitude":5.799644,"region":"Bourgogne-Franche-Comté","nombrePOI":38},{"nom":"Joncherey","latitude":47.5262,"longitude":6.9988,"region":"Grand Est","nombrePOI":38},{"nom":"Fontaines - Mercurey","latitude":46.8512109,"longitude":4.7750693,"region":"Bourgogne-Franche-Comté","nombrePOI":38},{"nom":"Thiviers","latitude":45.418965,"longitude":0.921348,"region":"Nouvelle-Aquitaine","nombrePOI":38},{"nom":"Anchamps","latitude":49.9307448,"longitude":4.6702434,"region":"Grand Est","nombrePOI":37},{"nom":"Dettwiller","latitude":48.7518969,"longitude":7.4652459,"region":"Grand Est","nombrePOI":37},{"nom":"Port-Sainte-Marie","latitude":44.2504383,"longitude":0.3905059,"region":"Occitanie","nombrePOI":37},{"nom":"Châteauneuf - Bujaleuf","latitude":45.759316,"longitude":1.6453027,"region":"Nouvelle-Aquitaine","nombrePOI":37},{"nom":"Limoges Montjovis","latitude":45.8384117,"longitude":1.2514147,"region":"Nouvelle-Aquitaine","nombrePOI":37},{"nom":"L'Aiguille","latitude":45.7783702,"longitude":1.2049024,"region":"Nouvelle-Aquitaine","nombrePOI":37},{"nom":"Saint-Chély-d'Apcher","latitude":44.8017375,"longitude":3.2706895,"region":"Auvergne-Rhône-Alpes","nombrePOI":36},{"nom":"Le Pouliguen","latitude":47.2825404,"longitude":-2.4331446,"region":"Bretagne","nombrePOI":36},{"nom":"Oudon","latitude":47.3433655,"longitude":-1.291992,"region":"Bretagne","nombrePOI":36},{"nom":"Béziers","latitude":43.33633,"longitude":3.218873,"region":"Occitanie","nombrePOI":35},{"nom":"Cornil","latitude":45.2151758,"longitude":1.6978482,"region":"Nouvelle-Aquitaine","nombrePOI":35},{"nom":"Marienthal","latitude":48.781863,"longitude":7.8231894,"region":"Grand Est","nombrePOI":35},{"nom":"Écommoy","latitude":47.8246286,"longitude":0.2691867,"region":"Pays de la Loire","nombrePOI":35},{"nom":"Gardanne","latitude":43.455992,"longitude":5.463332,"region":"Provence-Alpes-Côte d'Azur","nombrePOI":35},{"nom":"Saint-Léonard-de-Noblat","latitude":45.8320199,"longitude":1.481686,"region":"Nouvelle-Aquitaine","nombrePOI":35},{"nom":"Bellignat","latitude":46.2381265,"longitude":5.6298849,"region":"Bourgogne-Franche-Comté","nombrePOI":35},{"nom":"Liancourt - Rantigny","latitude":49.32471,"longitude":2.44532,"region":"Hauts-de-France","nombrePOI":35},{"nom":"Sainte-Foy-la-Grande","latitude":44.836886,"longitude":0.221519,"region":"Occitanie","nombrePOI":35},{"nom":"Gannat","latitude":46.0975964,"longitude":3.2047514,"region":"Auvergne-Rhône-Alpes","nombrePOI":35},{"nom":"Marvejols","latitude":44.5446819,"longitude":3.2810718,"region":"Auvergne-Rhône-Alpes","nombrePOI":34},{"nom":"Deville","latitude":49.8796028,"longitude":4.7072062,"region":"Grand Est","nombrePOI":34},{"nom":"Itxassou","latitude":43.324043,"longitude":-1.3956111,"region":"Nouvelle-Aquitaine","nombrePOI":34},{"nom":"Mundolsheim","latitude":48.6447732,"longitude":7.721389,"region":"Grand Est","nombrePOI":34},{"nom":"Clisson","latitude":47.086142,"longitude":-1.286172,"region":"Pays de la Loire","nombrePOI":34},{"nom":"Souillac","latitude":44.902127,"longitude":1.466605,"region":"Occitanie","nombrePOI":34},{"nom":"Cheilly-lès-Maranges","latitude":46.8924768,"longitude":4.6758424,"region":"Bourgogne-Franche-Comté","nombrePOI":34},{"nom":"Baraqueville Carcenac Peyralès","latitude":44.2704368,"longitude":2.4275453,"region":"Auvergne-Rhône-Alpes","nombrePOI":34},{"nom":"Aixe-sur-Vienne","latitude":45.7965002,"longitude":1.1456892,"region":"Nouvelle-Aquitaine","nombrePOI":34},{"nom":"Laigneville","latitude":49.29276,"longitude":2.44894,"region":"Hauts-de-France","nombrePOI":34},{"nom":"Soultz-sous-Forêts","latitude":48.9347687,"longitude":7.8827184,"region":"Grand Est","nombrePOI":34},{"nom":"Les Deux Jumeaux","latitude":43.3699568,"longitude":-1.7643532,"region":"Nouvelle-Aquitaine","nombrePOI":34},{"nom":"Guéthary","latitude":43.4253491,"longitude":-1.6098615,"region":"Nouvelle-Aquitaine","nombrePOI":34},{"nom":"Gujan-Mestras","latitude":44.640454,"longitude":-1.06906,"region":"Nouvelle-Aquitaine","nombrePOI":34},{"nom":"Rassuen","latitude":43.4966716,"longitude":4.9731266,"region":"Provence-Alpes-Côte d'Azur","nombrePOI":34},{"nom":"Gambsheim","latitude":48.6948699,"longitude":7.8791884,"region":"Grand Est","nombrePOI":34},{"nom":"Farschviller","latitude":49.0878773,"longitude":6.9080815,"region":"Grand Est","nombrePOI":34},{"nom":"Haybes","latitude":50.0116888,"longitude":4.7045378,"region":"Grand Est","nombrePOI":33},{"nom":"Laifour","latitude":49.911256,"longitude":4.6923484,"region":"Grand Est","nombrePOI":33},{"nom":"Angers Saint-Laud","latitude":47.464647,"longitude":-0.55682,"region":"Pays de la Loire","nombrePOI":33},{"nom":"Limoges Bénédictins","latitude":45.836089,"longitude":1.267356,"region":"Nouvelle-Aquitaine","nombrePOI":33},{"nom":"Thaon","latitude":48.24465,"longitude":6.416384,"region":"Grand Est","nombrePOI":33},{"nom":"Rochefort","latitude":45.947189,"longitude":-0.963556,"region":"Nouvelle-Aquitaine","nombrePOI":33},{"nom":"Mende","latitude":44.522322,"longitude":3.5019875,"region":"Auvergne-Rhône-Alpes","nombrePOI":33},{"nom":"Poligny","latitude":46.8443393,"longitude":5.7001051,"region":"Bourgogne-Franche-Comté","nombrePOI":33},{"nom":"Notre-Dame de Briançon","latitude":45.5393185,"longitude":6.4687785,"region":"Auvergne-Rhône-Alpes","nombrePOI":33},{"nom":"Naucelle","latitude":44.1854793,"longitude":2.363504,"region":"Auvergne-Rhône-Alpes","nombrePOI":33},{"nom":"Neuvic","latitude":45.0999632,"longitude":0.4450162,"region":"Nouvelle-Aquitaine","nombrePOI":33},{"nom":"Saint-Avold","latitude":49.085873,"longitude":6.7206141,"region":"Grand Est","nombrePOI":33},{"nom":"Frasne","latitude":46.857596,"longitude":6.157767,"region":"Bourgogne-Franche-Comté","nombrePOI":33},{"nom":"Guéret","latitude":46.1741863,"longitude":1.8793855,"region":"Nouvelle-Aquitaine","nombrePOI":33},{"nom":"Halsou - Larressore","latitude":43.3781301,"longitude":-1.4279003,"region":"Nouvelle-Aquitaine","nombrePOI":33},{"nom":"Avignon TGV","latitude":43.921586,"longitude":4.786079,"region":"Provence-Alpes-Côte d'Azur","nombrePOI":32},{"nom":"Nerpuy","latitude":46.7834177,"longitude":0.5256884,"region":"Pays de la Loire","nombrePOI":32},{"nom":"Boran-sur-Oise","latitude":49.1671348,"longitude":2.362537,"region":"Île-de-France","nombrePOI":32},{"nom":"Sedan","latitude":49.695024,"longitude":4.930373,"region":"Grand Est","nombrePOI":32},{"nom":"Ancy-sur-Moselle","latitude":49.0575093,"longitude":6.0627661,"region":"Grand Est","nombrePOI":32},{"nom":"Baume-les-Dames","latitude":47.353937,"longitude":6.359603,"region":"Bourgogne-Franche-Comté","nombrePOI":32},{"nom":"Saint-Maixent-L'École","latitude":46.406607,"longitude":-0.201073,"region":"Nouvelle-Aquitaine","nombrePOI":32},{"nom":"La Réole","latitude":44.579742,"longitude":-0.03057,"region":"Occitanie","nombrePOI":32},{"nom":"Aiguillon","latitude":44.2987224,"longitude":0.3352388,"region":"Occitanie","nombrePOI":32},{"nom":"Champagney","latitude":47.7031399,"longitude":6.7012773,"region":"Grand Est","nombrePOI":32},{"nom":"Saint-Mars-la-Brière","latitude":48.0285239,"longitude":0.3656778,"region":"Pays de la Loire","nombrePOI":32},{"nom":"Rang-du-Fliers - Verton - Berck","latitude":50.41579,"longitude":1.64805,"region":"Hauts-de-France","nombrePOI":32},{"nom":"Delle","latitude":47.50593,"longitude":7.00962,"region":"Grand Est","nombrePOI":32},{"nom":"Hombourg-Haut","latitude":49.1261085,"longitude":6.7742703,"region":"Grand Est","nombrePOI":32},{"nom":"Montchanin","latitude":46.7592649,"longitude":4.4814867,"region":"Bourgogne-Franche-Comté","nombrePOI":31},{"nom":"Campagnac - Saint-Geniez","latitude":44.4219559,"longitude":3.0664008,"region":"Auvergne-Rhône-Alpes","nombrePOI":31},{"nom":"Tournus","latitude":46.56668,"longitude":4.906647,"region":"Bourgogne-Franche-Comté","nombrePOI":31},{"nom":"Bayonne","latitude":43.496801,"longitude":-1.470306,"region":"Nouvelle-Aquitaine","nombrePOI":31},{"nom":"Arles","latitude":43.684853,"longitude":4.63203,"region":"Provence-Alpes-Côte d'Azur","nombrePOI":31},{"nom":"Libourne","latitude":44.915888,"longitude":-0.236344,"region":"Occitanie","nombrePOI":31},{"nom":"Lons-le-Saunier","latitude":46.66858,"longitude":5.551108,"region":"Bourgogne-Franche-Comté","nombrePOI":31},{"nom":"Lalinde","latitude":44.8396152,"longitude":0.7427811,"region":"Occitanie","nombrePOI":31},{"nom":"Villefort","latitude":44.4395099,"longitude":3.9240146,"region":"Auvergne-Rhône-Alpes","nombrePOI":31},{"nom":"La Gorp","latitude":44.9288345,"longitude":-0.4963844,"region":"Nouvelle-Aquitaine","nombrePOI":31},{"nom":"Saint-Léon-sur-l'Isle","latitude":45.1233004,"longitude":0.4923106,"region":"Nouvelle-Aquitaine","nombrePOI":31},{"nom":"Vireux-Molhain","latitude":50.0827968,"longitude":4.7233909,"region":"Grand Est","nombrePOI":30},{"nom":"Fumay","latitude":49.986048,"longitude":4.6926,"region":"Grand Est","nombrePOI":30},{"nom":"Ancenis","latitude":47.369334,"longitude":-1.177763,"region":"Bretagne","nombrePOI":30},{"nom":"Dombasle-sur-Meurthe","latitude":48.623275,"longitude":6.343478,"region":"Grand Est","nombrePOI":30},{"nom":"Einvaux","latitude":48.5034859,"longitude":6.3932959,"region":"Grand Est","nombrePOI":30},{"nom":"Landry","latitude":45.5741713,"longitude":6.7338182,"region":"Auvergne-Rhône-Alpes","nombrePOI":30},{"nom":"Aime - La Plagne","latitude":45.5544,"longitude":6.648646,"region":"Auvergne-Rhône-Alpes","nombrePOI":30},{"nom":"Saint-Médard-d'Eyrans","latitude":44.7168571,"longitude":-0.5057172,"region":"Nouvelle-Aquitaine","nombrePOI":30},{"nom":"Batz-sur-Mer","latitude":47.2809541,"longitude":-2.4789866,"region":"Bretagne","nombrePOI":30},{"nom":"Istres","latitude":43.5153953,"longitude":4.9804272,"region":"Provence-Alpes-Côte d'Azur","nombrePOI":30},{"nom":"Lunel-Viel","latitude":43.6811729,"longitude":4.0937398,"region":"Occitanie","nombrePOI":30},{"nom":"Kilstett","latitude":48.6793065,"longitude":7.8549031,"region":"Grand Est","nombrePOI":30},{"nom":"Mulhouse","latitude":47.742224,"longitude":7.342396,"region":"Grand Est","nombrePOI":29},{"nom":"Orry-la-Ville - Coye","latitude":49.13895,"longitude":2.49,"region":"Île-de-France","nombrePOI":29},{"nom":"Cambo-les-Bains","latitude":43.3656242,"longitude":-1.3966849,"region":"Nouvelle-Aquitaine","nombrePOI":29},{"nom":"Ossès - Saint-Martin-d'Arrossa","latitude":43.2352119,"longitude":-1.3048922,"region":"Nouvelle-Aquitaine","nombrePOI":29},{"nom":"Compiègne","latitude":49.422005,"longitude":2.823679,"region":"Hauts-de-France","nombrePOI":29},{"nom":"Haguenau","latitude":48.8134498,"longitude":7.7827255,"region":"Grand Est","nombrePOI":29},{"nom":"Beauvais","latitude":49.42648,"longitude":2.08869,"region":"Hauts-de-France","nombrePOI":29},{"nom":"Mulhouse Dornach","latitude":47.74713,"longitude":7.308477,"region":"Grand Est","nombrePOI":29},{"nom":"Argenton-sur-Creuse","latitude":46.592248,"longitude":1.518305,"region":"Nouvelle-Aquitaine","nombrePOI":29},{"nom":"Brignais","latitude":45.6737721,"longitude":4.7636596,"region":"Auvergne-Rhône-Alpes","nombrePOI":29},{"nom":"Oyonnax","latitude":46.259742,"longitude":5.653338,"region":"Bourgogne-Franche-Comté","nombrePOI":29},{"nom":"Ingwiller","latitude":48.8723277,"longitude":7.477155,"region":"Grand Est","nombrePOI":29},{"nom":"Saint-Vit","latitude":47.183507,"longitude":5.809057,"region":"Bourgogne-Franche-Comté","nombrePOI":29},{"nom":"Le Teich","latitude":44.632507,"longitude":-1.025556,"region":"Nouvelle-Aquitaine","nombrePOI":29},{"nom":"Le Creusot - Montceau-les-Mines - Montchanin TGV","latitude":46.765343,"longitude":4.499513,"region":"Bourgogne-Franche-Comté","nombrePOI":29},{"nom":"Langon","latitude":44.555448,"longitude":-0.25554,"region":"Occitanie","nombrePOI":29},{"nom":"Saint-Sulpice-Laurière","latitude":46.0469183,"longitude":1.4762218,"region":"Nouvelle-Aquitaine","nombrePOI":29},{"nom":"Le Cellier","latitude":47.3135164,"longitude":-1.3506694,"region":"Bretagne","nombrePOI":29},{"nom":"Forbach","latitude":49.1892278,"longitude":6.9013184,"region":"Grand Est","nombrePOI":28},{"nom":"Boucau","latitude":43.5234217,"longitude":-1.4905872,"region":"Nouvelle-Aquitaine","nombrePOI":28},{"nom":"Paray-le-Monial","latitude":46.447312,"longitude":4.113744,"region":"Bourgogne-Franche-Comté","nombrePOI":28},{"nom":"Châtellerault","latitude":46.818594,"longitude":0.549279,"region":"Pays de la Loire","nombrePOI":28},{"nom":"Weyersheim","latitude":48.7177903,"longitude":7.7971027,"region":"Grand Est","nombrePOI":28},{"nom":"Saint-Chamas","latitude":43.5511577,"longitude":5.0402963,"region":"Provence-Alpes-Côte d'Azur","nombrePOI":28},{"nom":"Hendaye","latitude":43.353132,"longitude":-1.781724,"region":"Nouvelle-Aquitaine","nombrePOI":28},{"nom":"Clermont de l'Oise","latitude":49.38531,"longitude":2.41767,"region":"Hauts-de-France","nombrePOI":28},{"nom":"Vendenheim","latitude":48.6659659,"longitude":7.7177824,"region":"Grand Est","nombrePOI":27},{"nom":"Figeac","latitude":44.603515,"longitude":2.037355,"region":"Occitanie","nombrePOI":27},{"nom":"Chalon-sur-Saône","latitude":46.781612,"longitude":4.843454,"region":"Bourgogne-Franche-Comté","nombrePOI":27},{"nom":"Biarritz","latitude":43.459397,"longitude":-1.545915,"region":"Nouvelle-Aquitaine","nombrePOI":27},{"nom":"Miramas","latitude":43.580704,"longitude":5.000264,"region":"Provence-Alpes-Côte d'Azur","nombrePOI":27},{"nom":"Saint-Sébastien Pas Enchantés","latitude":47.2069513,"longitude":-1.5109069,"region":"Pays de la Loire","nombrePOI":27},{"nom":"Thouars","latitude":46.9852442,"longitude":-0.2097941,"region":"Pays de la Loire","nombrePOI":27},{"nom":"Mulhouse Musées","latitude":47.75136,"longitude":7.29478,"region":"Grand Est","nombrePOI":27},{"nom":"Aix-en-Provence","latitude":43.522912,"longitude":5.445345,"region":"Provence-Alpes-Côte d'Azur","nombrePOI":27},{"nom":"Arcachon","latitude":44.659009,"longitude":-1.16523,"region":"Nouvelle-Aquitaine","nombrePOI":27},{"nom":"Varangéville - Saint-Nicolas","latitude":48.63533929,"longitude":6.31286037,"region":"Grand Est","nombrePOI":27},{"nom":"Margaux","latitude":45.0358307,"longitude":-0.6854145,"region":"Nouvelle-Aquitaine","nombrePOI":27},{"nom":"Laboissière - Le Déluge","latitude":49.2885368,"longitude":2.1361486,"region":"Hauts-de-France","nombrePOI":27},{"nom":"Ronchamp","latitude":47.6990308,"longitude":6.6232791,"region":"Grand Est","nombrePOI":27},{"nom":"Nantiat","latitude":46.0056192,"longitude":1.1563734,"region":"Nouvelle-Aquitaine","nombrePOI":27},{"nom":"Montfort-le-Gesnois","latitude":48.0405657,"longitude":0.4064237,"region":"Pays de la Loire","nombrePOI":27},{"nom":"Dannemarie - Velesmes","latitude":47.2038599,"longitude":5.8738348,"region":"Bourgogne-Franche-Comté","nombrePOI":27},{"nom":"Valergues - Lansargues","latitude":43.672678,"longitude":4.0601085,"region":"Occitanie","nombrePOI":27},{"nom":"Mauves-sur-Loire","latitude":47.2930211,"longitude":-1.3893042,"region":"Bretagne","nombrePOI":27},{"nom":"Saint-Clément - Laronxe","latitude":48.5312283,"longitude":6.6081108,"region":"Grand Est","nombrePOI":27},{"nom":"Sainte-Pazanne","latitude":47.1055419,"longitude":-1.8138744,"region":"Pays de la Loire","nombrePOI":27},{"nom":"Port-Saint-Père - Saint-Mars","latitude":47.1164915,"longitude":-1.7393069,"region":"Pays de la Loire","nombrePOI":27},{"nom":"Magalas","latitude":43.4675998,"longitude":3.2295415,"region":"Occitanie","nombrePOI":26},{"nom":"Aubrives","latitude":50.1044507,"longitude":4.7616512,"region":"Grand Est","nombrePOI":26},{"nom":"Dax","latitude":43.720472,"longitude":-1.050301,"region":"Nouvelle-Aquitaine","nombrePOI":26},{"nom":"Rognac","latitude":43.4866,"longitude":5.230666,"region":"Provence-Alpes-Côte d'Azur","nombrePOI":26},{"nom":"Brive-la-Gaillarde","latitude":45.152618,"longitude":1.528655,"region":"Nouvelle-Aquitaine","nombrePOI":26},{"nom":"Allassac","latitude":45.2589385,"longitude":1.4731471,"region":"Nouvelle-Aquitaine","nombrePOI":26},{"nom":"Solignac - Le Vigen","latitude":45.7561586,"longitude":1.2856817,"region":"Nouvelle-Aquitaine","nombrePOI":26},{"nom":"Mussidan","latitude":45.034329,"longitude":0.354071,"region":"Occitanie","nombrePOI":26},{"nom":"Le Croisic","latitude":47.289836,"longitude":-2.507442,"region":"Bretagne","nombrePOI":26},{"nom":"Brignac","latitude":45.8635812,"longitude":1.4406315,"region":"Nouvelle-Aquitaine","nombrePOI":26},{"nom":"Chaponost","latitude":45.6984889,"longitude":4.7643014,"region":"Auvergne-Rhône-Alpes","nombrePOI":26},{"nom":"Tarascon","latitude":43.801331,"longitude":4.657206,"region":"Provence-Alpes-Côte d'Azur","nombrePOI":26},{"nom":"Étaples - Le Touquet","latitude":50.51686,"longitude":1.64231,"region":"Hauts-de-France","nombrePOI":26},{"nom":"Barsac","latitude":44.6054306,"longitude":-0.3215775,"region":"Occitanie","nombrePOI":26},{"nom":"Machilly","latitude":46.2512825,"longitude":6.3282335,"region":"Bourgogne-Franche-Comté","nombrePOI":26},{"nom":"Villefranque","latitude":43.4313998,"longitude":-1.4564514,"region":"Nouvelle-Aquitaine","nombrePOI":26},{"nom":"Graffenstaden","latitude":48.5324375,"longitude":7.6897861,"region":"Grand Est","nombrePOI":25},{"nom":"Nevers","latitude":46.987282,"longitude":3.150743,"region":"Bourgogne-Franche-Comté","nombrePOI":25},{"nom":"Saint-Rambert-d'Albon","latitude":45.297797,"longitude":4.810849,"region":"Auvergne-Rhône-Alpes","nombrePOI":25},{"nom":"Banassac - La Canourgue","latitude":44.4477632,"longitude":3.1958518,"region":"Auvergne-Rhône-Alpes","nombrePOI":25},{"nom":"La Chapelle Centre","latitude":47.2972029,"longitude":-1.548012,"region":"Bretagne","nombrePOI":25},{"nom":"Valence TGV Rhône-Alpes Sud","latitude":44.991545,"longitude":4.978703,"region":"Auvergne-Rhône-Alpes","nombrePOI":25},{"nom":"Avignon Centre","latitude":43.9419,"longitude":4.805281,"region":"Provence-Alpes-Côte d'Azur","nombrePOI":25},{"nom":"Pont-Sainte-Maxence","latitude":49.30974,"longitude":2.60289,"region":"Hauts-de-France","nombrePOI":25},{"nom":"Tonnay-Charente","latitude":45.9433989,"longitude":-0.8978981,"region":"Nouvelle-Aquitaine","nombrePOI":25},{"nom":"Soissons","latitude":49.3691983,"longitude":3.3381259,"region":"Hauts-de-France","nombrePOI":25},{"nom":"Saint-Léger-sur-Dheune","latitude":46.8484526,"longitude":4.6286039,"region":"Bourgogne-Franche-Comté","nombrePOI":25},{"nom":"Laneuveville-devant-Nancy","latitude":48.65564,"longitude":6.22792,"region":"Grand Est","nombrePOI":25},{"nom":"Habsheim","latitude":47.737691,"longitude":7.417979,"region":"Grand Est","nombrePOI":25},{"nom":"Rixheim","latitude":47.74896,"longitude":7.406404,"region":"Grand Est","nombrePOI":25},{"nom":"La Souterraine","latitude":46.239792,"longitude":1.492151,"region":"Nouvelle-Aquitaine","nombrePOI":25},{"nom":"Pont-de-Veyle","latitude":46.2679114,"longitude":4.8930347,"region":"Bourgogne-Franche-Comté","nombrePOI":25},{"nom":"La Grave d'Ambarès","latitude":44.9356421,"longitude":-0.477021,"region":"Nouvelle-Aquitaine","nombrePOI":25},{"nom":"Bouaye","latitude":47.1380806,"longitude":-1.6810992,"region":"Pays de la Loire","nombrePOI":25},{"nom":"Le Creusot","latitude":46.807815,"longitude":4.4304403,"region":"Bourgogne-Franche-Comté","nombrePOI":24},{"nom":"Nouzonville","latitude":49.8120125,"longitude":4.7428155,"region":"Grand Est","nombrePOI":24},{"nom":"Chagny","latitude":46.907269,"longitude":4.749682,"region":"Bourgogne-Franche-Comté","nombrePOI":24},{"nom":"Nantes","latitude":47.216148,"longitude":-1.542356,"region":"Pays de la Loire","nombrePOI":24},{"nom":"La Borne Blanche","latitude":49.126985,"longitude":2.5058656,"region":"Île-de-France","nombrePOI":24},{"nom":"Verdun","latitude":49.165406,"longitude":5.379701,"region":"Grand Est","nombrePOI":24},{"nom":"Noyon","latitude":49.57736,"longitude":3.00641,"region":"Hauts-de-France","nombrePOI":24},{"nom":"Pierrelatte","latitude":44.374719,"longitude":4.703783,"region":"Auvergne-Rhône-Alpes","nombrePOI":24},{"nom":"Hoerdt","latitude":48.7029518,"longitude":7.7794059,"region":"Grand Est","nombrePOI":24},{"nom":"Azerailles","latitude":48.4913355,"longitude":6.695778,"region":"Grand Est","nombrePOI":24},{"nom":"Laon","latitude":49.57061,"longitude":3.62443,"region":"Grand Est","nombrePOI":24},{"nom":"Tonneins","latitude":44.392796,"longitude":0.314093,"region":"Occitanie","nombrePOI":24},{"nom":"Motteville","latitude":49.6365717,"longitude":0.8497988,"region":"Normandie","nombrePOI":24},{"nom":"Bellac","latitude":46.1252044,"longitude":1.0461168,"region":"Nouvelle-Aquitaine","nombrePOI":24},{"nom":"Gardonne","latitude":44.8347538,"longitude":0.3319427,"region":"Occitanie","nombrePOI":24},{"nom":"Luzarches","latitude":49.11719,"longitude":2.42074,"region":"Île-de-France","nombrePOI":24},{"nom":"Seugy","latitude":49.1189923,"longitude":2.3989116,"region":"Île-de-France","nombrePOI":24},{"nom":"Fourchambault","latitude":47.0189684,"longitude":3.0873673,"region":"Bourgogne-Franche-Comté","nombrePOI":24},{"nom":"Vernaison","latitude":45.6456478,"longitude":4.8132908,"region":"Auvergne-Rhône-Alpes","nombrePOI":24},{"nom":"Irigny Yvours","latitude":45.69002,"longitude":4.83229,"region":"Auvergne-Rhône-Alpes","nombrePOI":24},{"nom":"Montreuil sur Mer","latitude":50.4661948,"longitude":1.7691662,"region":"Hauts-de-France","nombrePOI":24},{"nom":"Saint-Sébastien","latitude":46.3859938,"longitude":1.5466809,"region":"Nouvelle-Aquitaine","nombrePOI":24},{"nom":"Modane","latitude":45.193365,"longitude":6.658161,"region":"Auvergne-Rhône-Alpes","nombrePOI":24},{"nom":"Rully","latitude":46.8804303,"longitude":4.761033,"region":"Bourgogne-Franche-Comté","nombrePOI":24},{"nom":"Geispolsheim","latitude":48.5190515,"longitude":7.6843578,"region":"Grand Est","nombrePOI":23},{"nom":"Annemasse","latitude":46.199222,"longitude":6.23652,"region":"Bourgogne-Franche-Comté","nombrePOI":23},{"nom":"Joigny-sur-Meuse","latitude":49.8336807,"longitude":4.7672389,"region":"Grand Est","nombrePOI":23},{"nom":"Ondres","latitude":43.5685809,"longitude":-1.4571793,"region":"Nouvelle-Aquitaine","nombrePOI":23},{"nom":"Bidarray Pont Noblia","latitude":43.2682991,"longitude":-1.3453233,"region":"Nouvelle-Aquitaine","nombrePOI":23},{"nom":"Wilwisheim","latitude":48.745831,"longitude":7.5077599,"region":"Grand Est","nombrePOI":23},{"nom":"Bords","latitude":45.8944625,"longitude":-0.7985436,"region":"Nouvelle-Aquitaine","nombrePOI":23},{"nom":"Biganos Facture","latitude":44.637384,"longitude":-0.96621,"region":"Nouvelle-Aquitaine","nombrePOI":23},{"nom":"Nouvion-sur-Meuse","latitude":49.6973135,"longitude":4.794973,"region":"Grand Est","nombrePOI":23},{"nom":"Lingolsheim","latitude":48.5594092,"longitude":7.6781143,"region":"Grand Est","nombrePOI":23},{"nom":"Vire","latitude":48.846329,"longitude":-0.882884,"region":"Normandie","nombrePOI":23},{"nom":"Jonzac","latitude":45.4387456,"longitude":-0.44164,"region":"Nouvelle-Aquitaine","nombrePOI":23},{"nom":"Artix","latitude":43.3931062,"longitude":-0.5701881,"region":"Nouvelle-Aquitaine","nombrePOI":23},{"nom":"Lunel","latitude":43.679392,"longitude":4.131086,"region":"Occitanie","nombrePOI":23},{"nom":"Le Dorat","latitude":46.2110908,"longitude":1.0793364,"region":"Nouvelle-Aquitaine","nombrePOI":23},{"nom":"Connerré - Beillé","latitude":48.0735,"longitude":0.48687,"region":"Pays de la Loire","nombrePOI":23},{"nom":"Châteauneuf-sur-Charente","latitude":45.599836,"longitude":-0.0502,"region":"Nouvelle-Aquitaine","nombrePOI":23},{"nom":"Beaucaire","latitude":43.80209,"longitude":4.6470865,"region":"Provence-Alpes-Côte d'Azur","nombrePOI":23},{"nom":"Donjeux","latitude":48.3658544,"longitude":5.1482245,"region":"Grand Est","nombrePOI":23},{"nom":"Oullins","latitude":45.7166261,"longitude":4.8135793,"region":"Auvergne-Rhône-Alpes","nombrePOI":23},{"nom":"Fécamp","latitude":49.759277,"longitude":0.375287,"region":"Non définie","nombrePOI":23},{"nom":"Clamecy","latitude":47.4666984,"longitude":3.5207672,"region":"Grand Est","nombrePOI":23},{"nom":"Beautiran","latitude":44.701041,"longitude":-0.45017,"region":"Nouvelle-Aquitaine","nombrePOI":23},{"nom":"Portets","latitude":44.6929765,"longitude":-0.4253931,"region":"Nouvelle-Aquitaine","nombrePOI":23},{"nom":"Parsac - Gouzon","latitude":46.1986154,"longitude":2.1744416,"region":"Nouvelle-Aquitaine","nombrePOI":23},{"nom":"Longroy - Gamaches","latitude":49.9818917,"longitude":1.5526598,"region":"Hauts-de-France","nombrePOI":23},{"nom":"Blangy-sur-Bresle","latitude":49.9326071,"longitude":1.6259074,"region":"Hauts-de-France","nombrePOI":23},{"nom":"Schweighouse-sur-Moder","latitude":48.8286765,"longitude":7.7425635,"region":"Grand Est","nombrePOI":23},{"nom":"Givet","latitude":50.14025067,"longitude":4.81798595,"region":"Grand Est","nombrePOI":22},{"nom":"Monthermé","latitude":49.865621,"longitude":4.74053,"region":"Grand Est","nombrePOI":22},{"nom":"Chauffailles","latitude":46.2074552,"longitude":4.3454278,"region":"Bourgogne-Franche-Comté","nombrePOI":22},{"nom":"Port Boulet","latitude":47.248836,"longitude":0.155648,"region":"Pays de la Loire","nombrePOI":22},{"nom":"Château-du-Loir","latitude":47.683392,"longitude":0.414912,"region":"Pays de la Loire","nombrePOI":22},{"nom":"Caussade","latitude":44.1622668,"longitude":1.5336541,"region":"Occitanie","nombrePOI":22},{"nom":"Saint-Astier","latitude":45.139027,"longitude":0.522808,"region":"Nouvelle-Aquitaine","nombrePOI":22},{"nom":"Pringy","latitude":45.9395239,"longitude":6.1232736,"region":"Auvergne-Rhône-Alpes","nombrePOI":22},{"nom":"Baccarat","latitude":48.452405,"longitude":6.74383,"region":"Grand Est","nombrePOI":22},{"nom":"Anizy - Pinon","latitude":49.4960073,"longitude":3.4487637,"region":"Grand Est","nombrePOI":22},{"nom":"Lamagistère","latitude":44.1267231,"longitude":0.8255002,"region":"Occitanie","nombrePOI":22},{"nom":"Parempuyre","latitude":44.9447032,"longitude":-0.6193396,"region":"Nouvelle-Aquitaine","nombrePOI":22},{"nom":"Bologne","latitude":48.1986877,"longitude":5.1342228,"region":"Grand Est","nombrePOI":22},{"nom":"Pierre-Bénite","latitude":45.7066772,"longitude":4.8245059,"region":"Auvergne-Rhône-Alpes","nombrePOI":22},{"nom":"Saint-Laurent-de-la-Prée - Fouras","latitude":45.9930002,"longitude":-1.0274305,"region":"Nouvelle-Aquitaine","nombrePOI":22},{"nom":"Perrignier","latitude":46.303259,"longitude":6.4249208,"region":"Bourgogne-Franche-Comté","nombrePOI":22},{"nom":"Houdemont","latitude":48.645478,"longitude":6.1797255,"region":"Grand Est","nombrePOI":22},{"nom":"Feyzin","latitude":45.6658584,"longitude":4.8531349,"region":"Auvergne-Rhône-Alpes","nombrePOI":22},{"nom":"Decize","latitude":46.837362,"longitude":3.467274,"region":"Bourgogne-Franche-Comté","nombrePOI":21},{"nom":"Ceilhes - Roqueredonde","latitude":43.8122656,"longitude":3.1551583,"region":"Occitanie","nombrePOI":21},{"nom":"Aumont-Aubrac","latitude":44.7181699,"longitude":3.2835489,"region":"Auvergne-Rhône-Alpes","nombrePOI":21},{"nom":"Saint-Flour - Chaudes-Aigues","latitude":45.0350122,"longitude":3.1062862,"region":"Auvergne-Rhône-Alpes","nombrePOI":21},{"nom":"Babinière","latitude":47.25875274,"longitude":-1.544928378,"region":"Pays de la Loire","nombrePOI":21},{"nom":"Sucé-sur-Erdre","latitude":47.3431347,"longitude":-1.5299873,"region":"Bretagne","nombrePOI":21},{"nom":"Germaine","latitude":49.1277634,"longitude":4.0228976,"region":"Grand Est","nombrePOI":21},{"nom":"Hagondange","latitude":49.25356,"longitude":6.16448,"region":"Grand Est","nombrePOI":21},{"nom":"Bayeux","latitude":49.269836,"longitude":-0.698056,"region":"Normandie","nombrePOI":21},{"nom":"Uzerche","latitude":45.4407088,"longitude":1.5702735,"region":"Nouvelle-Aquitaine","nombrePOI":21},{"nom":"Courcelles-sur-Nied","latitude":49.0634035,"longitude":6.3109926,"region":"Grand Est","nombrePOI":21},{"nom":"Chaumont-en-Vexin","latitude":49.26139,"longitude":1.87274,"region":"Hauts-de-France","nombrePOI":21},{"nom":"Châtel - Nomexy","latitude":48.307156,"longitude":6.387807,"region":"Grand Est","nombrePOI":21},{"nom":"La Basse Indre - Saint-Herblain","latitude":47.2040872,"longitude":-1.6603088,"region":"Pays de la Loire","nombrePOI":21},{"nom":"Valence d'Agen","latitude":44.1117317,"longitude":0.8915743,"region":"Occitanie","nombrePOI":21},{"nom":"Oermingen","latitude":49.0003724,"longitude":7.1317322,"region":"Grand Est","nombrePOI":21},{"nom":"Meyrargues","latitude":43.6440076,"longitude":5.5395738,"region":"Provence-Alpes-Côte d'Azur","nombrePOI":21},{"nom":"Ludres","latitude":48.6219545,"longitude":6.1709118,"region":"Grand Est","nombrePOI":21},{"nom":"Coulanges-sur-Yonne","latitude":47.5270546,"longitude":3.5472388,"region":"Grand Est","nombrePOI":21},{"nom":"Saint-Fons","latitude":45.7058114,"longitude":4.8525663,"region":"Auvergne-Rhône-Alpes","nombrePOI":21},{"nom":"Boussay - La Bruffière","latitude":47.0505741,"longitude":-1.1828046,"region":"Pays de la Loire","nombrePOI":21},{"nom":"Hoenheim Tram","latitude":48.6285976,"longitude":7.7581387,"region":"Grand Est","nombrePOI":21},{"nom":"Montélimar","latitude":44.559079,"longitude":4.744792,"region":"Auvergne-Rhône-Alpes","nombrePOI":20},{"nom":"Labenne","latitude":43.5870509,"longitude":-1.4288712,"region":"Nouvelle-Aquitaine","nombrePOI":20},{"nom":"Nort-sur-Erdre","latitude":47.4419243,"longitude":-1.5033645,"region":"Bretagne","nombrePOI":20},{"nom":"Aix-en-Provence TGV","latitude":43.455237,"longitude":5.317534,"region":"Provence-Alpes-Côte d'Azur","nombrePOI":20},{"nom":"Donzère","latitude":44.4433646,"longitude":4.7046262,"region":"Auvergne-Rhône-Alpes","nombrePOI":20},{"nom":"Cahors","latitude":44.449275,"longitude":1.433325,"region":"Occitanie","nombrePOI":20},{"nom":"Strasbourg Roethig","latitude":48.5632897,"longitude":7.6950455,"region":"Grand Est","nombrePOI":20},{"nom":"Meung-sur-Loire","latitude":47.829926,"longitude":1.691928,"region":"Centre-Val de Loire","nombrePOI":20},{"nom":"Vincey","latitude":48.3436471,"longitude":6.3355129,"region":"Grand Est","nombrePOI":20},{"nom":"Chantenay","latitude":47.1971227,"longitude":-1.5943634,"region":"Pays de la Loire","nombrePOI":20},{"nom":"Frontignan","latitude":43.444934,"longitude":3.758689,"region":"Occitanie","nombrePOI":20},{"nom":"Jarville-la-Malgrange","latitude":48.6698381,"longitude":6.2024643,"region":"Grand Est","nombrePOI":20},{"nom":"Esches","latitude":49.2125205,"longitude":2.1708125,"region":"Île-de-France","nombrePOI":20},{"nom":"Langogne","latitude":44.732776,"longitude":3.8573047,"region":"Auvergne-Rhône-Alpes","nombrePOI":20},{"nom":"Génolhac","latitude":44.3471626,"longitude":3.9516407,"region":"Auvergne-Rhône-Alpes","nombrePOI":20},{"nom":"Crépy-en-Valois","latitude":49.231235,"longitude":2.8864694,"region":"Île-de-France","nombrePOI":20},{"nom":"Soulac-sur-Mer","latitude":45.5081769,"longitude":-1.1175894,"region":"Nouvelle-Aquitaine","nombrePOI":20},{"nom":"Grigny le Sablon","latitude":45.6072601,"longitude":4.796144,"region":"Auvergne-Rhône-Alpes","nombrePOI":20},{"nom":"Champagnole","latitude":46.7492981,"longitude":5.9100314,"region":"Bourgogne-Franche-Comté","nombrePOI":20},{"nom":"Meursault","latitude":46.9690497,"longitude":4.7954444,"region":"Bourgogne-Franche-Comté","nombrePOI":20},{"nom":"Cugand","latitude":47.0582602,"longitude":-1.253301,"region":"Pays de la Loire","nombrePOI":20},{"nom":"La Wantzenau","latitude":48.6651895,"longitude":7.8247832,"region":"Grand Est","nombrePOI":20},{"nom":"Dijon","latitude":47.32337,"longitude":5.027208,"region":"Bourgogne-Franche-Comté","nombrePOI":19},{"nom":"Assier","latitude":44.6746197,"longitude":1.8697681,"region":"Occitanie","nombrePOI":19},{"nom":"Cransac","latitude":44.522951,"longitude":2.2718666,"region":"Auvergne-Rhône-Alpes","nombrePOI":19},{"nom":"Tournemire - Roquefort","latitude":43.9698002,"longitude":3.0166261,"region":"Occitanie","nombrePOI":19},{"nom":"Vic-le-Comte","latitude":45.664911,"longitude":3.207079,"region":"Auvergne-Rhône-Alpes","nombrePOI":19},{"nom":"Saint-Martin-de-Crau","latitude":43.6223344,"longitude":4.8003403,"region":"Provence-Alpes-Côte d'Azur","nombrePOI":19},{"nom":"Mayet","latitude":47.7601465,"longitude":0.2659384,"region":"Pays de la Loire","nombrePOI":19},{"nom":"Saillans","latitude":44.6944365,"longitude":5.1940397,"region":"Auvergne-Rhône-Alpes","nombrePOI":19},{"nom":"Savenay","latitude":47.35859,"longitude":-1.950957,"region":"Bretagne","nombrePOI":19},{"nom":"Pagny-sur-Moselle","latitude":48.9852003,"longitude":6.0250346,"region":"Grand Est","nombrePOI":19},{"nom":"Nancy","latitude":48.689861,"longitude":6.174583,"region":"Grand Est","nombrePOI":19},{"nom":"Lyon Vaise","latitude":45.779938,"longitude":4.80396,"region":"Auvergne-Rhône-Alpes","nombrePOI":19},{"nom":"Charmes","latitude":48.378483,"longitude":6.301537,"region":"Grand Est","nombrePOI":19},{"nom":"Clerval","latitude":47.3966577,"longitude":6.4920574,"region":"Bourgogne-Franche-Comté","nombrePOI":19},{"nom":"Macau","latitude":45.0040981,"longitude":-0.6200068,"region":"Nouvelle-Aquitaine","nombrePOI":19},{"nom":"Maintenon","latitude":48.5854793,"longitude":1.5920651,"region":"Île-de-France","nombrePOI":19},{"nom":"Ormoy-Villers","latitude":49.2003204,"longitude":2.8379502,"region":"Île-de-France","nombrePOI":19},{"nom":"Sablé-sur-Sarthe","latitude":47.8415934,"longitude":-0.3419359,"region":"Pays de la Loire","nombrePOI":19},{"nom":"Vignory","latitude":48.2701366,"longitude":5.1241594,"region":"Grand Est","nombrePOI":19},{"nom":"Givors Canal","latitude":45.5957662,"longitude":4.7725754,"region":"Auvergne-Rhône-Alpes","nombrePOI":19},{"nom":"Cérons","latitude":44.632346,"longitude":-0.340526,"region":"Nouvelle-Aquitaine","nombrePOI":19},{"nom":"Gramat","latitude":44.7734284,"longitude":1.7223028,"region":"Occitanie","nombrePOI":19},{"nom":"Matzenheim","latitude":48.3987556,"longitude":7.6196003,"region":"Grand Est","nombrePOI":18},{"nom":"Stephansfeld","latitude":48.7175872,"longitude":7.7045946,"region":"Grand Est","nombrePOI":18},{"nom":"Brumath","latitude":48.7331082,"longitude":7.7004016,"region":"Grand Est","nombrePOI":18},{"nom":"Imphy","latitude":46.9333537,"longitude":3.2597113,"region":"Bourgogne-Franche-Comté","nombrePOI":18},{"nom":"Capdenac","latitude":44.5782458,"longitude":2.0779632,"region":"Occitanie","nombrePOI":18},{"nom":"Tenay - Hauteville","latitude":45.9222096,"longitude":5.5016101,"region":"Auvergne-Rhône-Alpes","nombrePOI":18},{"nom":"Saint-Georges-de-Luzençon","latitude":44.066553,"longitude":2.983784,"region":"Auvergne-Rhône-Alpes","nombrePOI":18},{"nom":"Bogny-sur-Meuse","latitude":49.8583117,"longitude":4.7632317,"region":"Grand Est","nombrePOI":18},{"nom":"Charleville-Mézières","latitude":49.767915,"longitude":4.724952,"region":"Grand Est","nombrePOI":18},{"nom":"Lyon Perrache","latitude":45.748476,"longitude":4.825733,"region":"Auvergne-Rhône-Alpes","nombrePOI":18},{"nom":"Tergnier","latitude":49.6591862,"longitude":3.2972491,"region":"Hauts-de-France","nombrePOI":18},{"nom":"Rilly-la-Montagne","latitude":49.1664524,"longitude":4.0408608,"region":"Grand Est","nombrePOI":18},{"nom":"Gandrange - Amnéville","latitude":49.2608222,"longitude":6.1358897,"region":"Grand Est","nombrePOI":18},{"nom":"Réding","latitude":48.7429595,"longitude":7.095885,"region":"Grand Est","nombrePOI":18},{"nom":"Hyères","latitude":43.108867,"longitude":6.124223,"region":"Provence-Alpes-Côte d'Azur","nombrePOI":18},{"nom":"Sérézin-du-Rhône","latitude":45.62716,"longitude":4.81806,"region":"Auvergne-Rhône-Alpes","nombrePOI":18},{"nom":"Sète","latitude":43.412485,"longitude":3.69656,"region":"Occitanie","nombrePOI":18},{"nom":"Frouard","latitude":48.75545,"longitude":6.14411,"region":"Grand Est","nombrePOI":18},{"nom":"Échirolles","latitude":45.153022,"longitude":5.718943,"region":"Auvergne-Rhône-Alpes","nombrePOI":18},{"nom":"Marmande","latitude":44.503019,"longitude":0.168044,"region":"Occitanie","nombrePOI":18},{"nom":"Pauillac","latitude":45.2038438,"longitude":-0.7551342,"region":"Nouvelle-Aquitaine","nombrePOI":18},{"nom":"Bornel - Belle-Église","latitude":49.19471,"longitude":2.20717,"region":"Île-de-France","nombrePOI":18},{"nom":"Hirson","latitude":49.91455,"longitude":4.08432,"region":"Grand Est","nombrePOI":18},{"nom":"Eymoutiers Vassivière","latitude":45.7397876,"longitude":1.7412237,"region":"Nouvelle-Aquitaine","nombrePOI":18},{"nom":"Francheville","latitude":45.7336473,"longitude":4.7693729,"region":"Auvergne-Rhône-Alpes","nombrePOI":18},{"nom":"Chamborigaud","latitude":44.3002429,"longitude":3.9793332,"region":"Auvergne-Rhône-Alpes","nombrePOI":18},{"nom":"La Charité-sur-Loire","latitude":47.179914,"longitude":3.023883,"region":"Bourgogne-Franche-Comté","nombrePOI":18},{"nom":"Pougues-les-Eaux","latitude":47.0767837,"longitude":3.0940304,"region":"Bourgogne-Franche-Comté","nombrePOI":18},{"nom":"Sarre-Union","latitude":48.9360172,"longitude":7.0850443,"region":"Grand Est","nombrePOI":18},{"nom":"La Hutte Coulombiers","latitude":48.303495,"longitude":0.1056788,"region":"Pays de la Loire","nombrePOI":18},{"nom":"Herchies","latitude":49.4879546,"longitude":2.0109273,"region":"Hauts-de-France","nombrePOI":18},{"nom":"Mennessis","latitude":49.6915989,"longitude":3.2711145,"region":"Hauts-de-France","nombrePOI":18},{"nom":"Ermont Halte","latitude":48.9898,"longitude":2.26323,"region":"Île-de-France","nombrePOI":17},{"nom":"Ermont - Eaubonne","latitude":48.98032,"longitude":2.27176,"region":"Île-de-France","nombrePOI":17},{"nom":"Champ de Courses d'Enghien","latitude":48.97975,"longitude":2.29189,"region":"Île-de-France","nombrePOI":17},{"nom":"Enghien-les-Bains","latitude":48.97309,"longitude":2.30699,"region":"Île-de-France","nombrePOI":17},{"nom":"La Courneuve - Aubervilliers","latitude":48.9242,"longitude":2.38443,"region":"Île-de-France","nombrePOI":17},{"nom":"La Plaine Stade de France - Saint-Denis - Aubervilliers","latitude":48.91839,"longitude":2.36257,"region":"Île-de-France","nombrePOI":17},{"nom":"Erstein","latitude":48.4229857,"longitude":7.6387869,"region":"Grand Est","nombrePOI":17},{"nom":"Fépin","latitude":50.0234644,"longitude":4.7266156,"region":"Grand Est","nombrePOI":17},{"nom":"Sarliève - Cournon","latitude":45.7387697,"longitude":3.1681196,"region":"Auvergne-Rhône-Alpes","nombrePOI":17},{"nom":"Abbaretz","latitude":47.5546432,"longitude":-1.5244159,"region":"Bretagne","nombrePOI":17},{"nom":"Sannois","latitude":48.97016,"longitude":2.26377,"region":"Île-de-France","nombrePOI":17},{"nom":"Chambéry - Challes-les-Eaux","latitude":45.571302,"longitude":5.919547,"region":"Auvergne-Rhône-Alpes","nombrePOI":17},{"nom":"Annecy","latitude":45.901965,"longitude":6.121835,"region":"Auvergne-Rhône-Alpes","nombrePOI":17},{"nom":"Saint-Gratien","latitude":48.96403,"longitude":2.28531,"region":"Île-de-France","nombrePOI":17},{"nom":"Saint-Savinien","latitude":45.8759277,"longitude":-0.6778775,"region":"Nouvelle-Aquitaine","nombrePOI":17},{"nom":"Pierre-Buffière","latitude":45.6995226,"longitude":1.3472667,"region":"Nouvelle-Aquitaine","nombrePOI":17},{"nom":"Gourdon","latitude":44.7419445,"longitude":1.389237,"region":"Occitanie","nombrePOI":17},{"nom":"Montpon-Ménestérol","latitude":45.006326,"longitude":0.159328,"region":"Occitanie","nombrePOI":17},{"nom":"Sallanches - Combloux - Megève","latitude":45.935702,"longitude":6.636431,"region":"Auvergne-Rhône-Alpes","nombrePOI":17},{"nom":"Pompey","latitude":48.77304,"longitude":6.13061,"region":"Grand Est","nombrePOI":17},{"nom":"Rémilly","latitude":49.0140249,"longitude":6.3950968,"region":"Grand Est","nombrePOI":17},{"nom":"Novéant-sur-Moselle","latitude":49.028635,"longitude":6.052101,"region":"Grand Est","nombrePOI":17},{"nom":"Champigneulles","latitude":48.73499,"longitude":6.16913,"region":"Grand Est","nombrePOI":17},{"nom":"Gilly-sur-Loire","latitude":46.5370137,"longitude":3.7821607,"region":"Bourgogne-Franche-Comté","nombrePOI":17},{"nom":"Épernay","latitude":49.046289,"longitude":3.959798,"region":"Grand Est","nombrePOI":17},{"nom":"Épernon","latitude":48.6052471,"longitude":1.6812578,"region":"Île-de-France","nombrePOI":17},{"nom":"La Ferté-Saint-Aubin","latitude":47.720975,"longitude":1.93236,"region":"Centre-Val de Loire","nombrePOI":17},{"nom":"Retournac","latitude":45.2013468,"longitude":4.0361169,"region":"Auvergne-Rhône-Alpes","nombrePOI":17},{"nom":"La Tour-de-Salvagny","latitude":45.7998818,"longitude":4.7164921,"region":"Auvergne-Rhône-Alpes","nombrePOI":17},{"nom":"Tassin","latitude":45.76151,"longitude":4.75857,"region":"Auvergne-Rhône-Alpes","nombrePOI":17},{"nom":"Dijon Porte Neuve","latitude":47.322806,"longitude":5.054872,"region":"Bourgogne-Franche-Comté","nombrePOI":17},{"nom":"Joinville","latitude":48.4442977,"longitude":5.143503,"region":"Grand Est","nombrePOI":17},{"nom":"Thonon-les-Bains","latitude":46.369004,"longitude":6.481669,"region":"Bourgogne-Franche-Comté","nombrePOI":17},{"nom":"Arbanats","latitude":44.6743555,"longitude":-0.3954517,"region":"Nouvelle-Aquitaine","nombrePOI":17},{"nom":"Podensac","latitude":44.6489664,"longitude":-0.3589057,"region":"Nouvelle-Aquitaine","nombrePOI":17},{"nom":"La Barre Ormesson","latitude":48.96633,"longitude":2.31688,"region":"Île-de-France","nombrePOI":16},{"nom":"Épinay - Villetaneuse","latitude":48.95838,"longitude":2.32865,"region":"Île-de-France","nombrePOI":16},{"nom":"Le Bourget","latitude":48.93096,"longitude":2.42571,"region":"Île-de-France","nombrePOI":16},{"nom":"Rouen Rive Droite","latitude":49.448764,"longitude":1.094087,"region":"Normandie","nombrePOI":16},{"nom":"Rosa Parks","latitude":48.89602,"longitude":2.37397,"region":"Île-de-France","nombrePOI":16},{"nom":"Sermizelles - Vézelay","latitude":47.5289068,"longitude":3.7928695,"region":"Grand Est","nombrePOI":16},{"nom":"Garges - Sarcelles","latitude":48.97663,"longitude":2.39078,"region":"Île-de-France","nombrePOI":16},{"nom":"Villiers-le-Bel - Gonesse - Arnouville","latitude":48.994175,"longitude":2.4162288,"region":"Île-de-France","nombrePOI":16},{"nom":"Épinay-sur-Seine","latitude":48.9542084,"longitude":2.3026142,"region":"Île-de-France","nombrePOI":16},{"nom":"Rombas - Clouange","latitude":49.2560553,"longitude":6.0990538,"region":"Grand Est","nombrePOI":16},{"nom":"Bruyères-sur-Oise","latitude":49.1552098,"longitude":2.3259636,"region":"Île-de-France","nombrePOI":16},{"nom":"Vaas","latitude":47.6707702,"longitude":0.3165096,"region":"Pays de la Loire","nombrePOI":16},{"nom":"Culmont - Chalindrey","latitude":47.8100902,"longitude":5.4432217,"region":"Grand Est","nombrePOI":16},{"nom":"Romans - Bourg-de-Péage","latitude":45.048857,"longitude":5.0498,"region":"Auvergne-Rhône-Alpes","nombrePOI":16},{"nom":"Montreuil-Bellay","latitude":47.1254181,"longitude":-0.1482834,"region":"Pays de la Loire","nombrePOI":16},{"nom":"Bressuire","latitude":46.8384462,"longitude":-0.4963269,"region":"Pays de la Loire","nombrePOI":16},{"nom":"Sarrebourg","latitude":48.73808,"longitude":7.05285,"region":"Grand Est","nombrePOI":16},{"nom":"Deuil - Montmagny","latitude":48.97589,"longitude":2.33785,"region":"Île-de-France","nombrePOI":16},{"nom":"Liancourt-Saint-Pierre","latitude":49.2204964,"longitude":1.905543,"region":"Île-de-France","nombrePOI":16},{"nom":"Trie-Château","latitude":49.2827168,"longitude":1.8180386,"region":"Hauts-de-France","nombrePOI":16},{"nom":"Sain-Bel","latitude":45.811097,"longitude":4.6012445,"region":"Auvergne-Rhône-Alpes","nombrePOI":16},{"nom":"Maromme","latitude":49.479935,"longitude":1.050485,"region":"Normandie","nombrePOI":16},{"nom":"Véretz - Montlouis","latitude":47.3715058,"longitude":0.8199079,"region":"Pays de la Loire","nombrePOI":16},{"nom":"Méru","latitude":49.23233,"longitude":2.13254,"region":"Île-de-France","nombrePOI":16},{"nom":"Saint-Piat","latitude":48.5429526,"longitude":1.5904889,"region":"Île-de-France","nombrePOI":16},{"nom":"Chartres","latitude":48.4482023,"longitude":1.4813128,"region":"Île-de-France","nombrePOI":16},{"nom":"Lentilly Charpenay","latitude":45.8165247,"longitude":4.6824009,"region":"Auvergne-Rhône-Alpes","nombrePOI":16},{"nom":"Charbonnières-les-Bains","latitude":45.782142,"longitude":4.735912,"region":"Auvergne-Rhône-Alpes","nombrePOI":16},{"nom":"Alaï","latitude":45.7521198,"longitude":4.7717824,"region":"Auvergne-Rhône-Alpes","nombrePOI":16},{"nom":"Montmélian","latitude":45.503059,"longitude":6.043289,"region":"Auvergne-Rhône-Alpes","nombrePOI":16},{"nom":"Saint-Jean-d'Angély","latitude":45.9407739,"longitude":-0.5097829,"region":"Nouvelle-Aquitaine","nombrePOI":16},{"nom":"Nanteuil-le-Haudouin","latitude":49.14275,"longitude":2.79459,"region":"Île-de-France","nombrePOI":16},{"nom":"Saint-Sulpice - Izon","latitude":44.9142742,"longitude":-0.392135,"region":"Nouvelle-Aquitaine","nombrePOI":16},{"nom":"Vayres","latitude":44.89717,"longitude":-0.31686,"region":"Occitanie","nombrePOI":16},{"nom":"Réaumont - Saint-Cassien","latitude":45.3688217,"longitude":5.5346895,"region":"Auvergne-Rhône-Alpes","nombrePOI":16},{"nom":"Chevillon","latitude":48.5245505,"longitude":5.1117843,"region":"Grand Est","nombrePOI":16},{"nom":"Faulquemont","latitude":49.0453391,"longitude":6.6039774,"region":"Grand Est","nombrePOI":16},{"nom":"Saint-Aunès","latitude":43.6354383,"longitude":3.9628994,"region":"Occitanie","nombrePOI":16},{"nom":"Najac","latitude":44.221802,"longitude":1.9761625,"region":"Occitanie","nombrePOI":16},{"nom":"Saint-Avre - La Chambre","latitude":45.3530978,"longitude":6.3028277,"region":"Auvergne-Rhône-Alpes","nombrePOI":16},{"nom":"Sarcelles - Saint-Brice","latitude":48.99529,"longitude":2.36867,"region":"Île-de-France","nombrePOI":15},{"nom":"Saint-Leu-la-Forêt","latitude":49.01571,"longitude":2.24264,"region":"Île-de-France","nombrePOI":15},{"nom":"Gros Noyer Saint-Prix","latitude":48.99682,"longitude":2.2588,"region":"Île-de-France","nombrePOI":15},{"nom":"Benfeld","latitude":48.3735367,"longitude":7.584125,"region":"Grand Est","nombrePOI":15},{"nom":"Tain-l'Hermitage - Tournon","latitude":45.072183,"longitude":4.839967,"region":"Auvergne-Rhône-Alpes","nombrePOI":15},{"nom":"Lyon Part Dieu","latitude":45.760559,"longitude":4.859355,"region":"Auvergne-Rhône-Alpes","nombrePOI":15},{"nom":"Aubin","latitude":44.5272762,"longitude":2.2393128,"region":"Auvergne-Rhône-Alpes","nombrePOI":15},{"nom":"Riom - Châtel-Guyon","latitude":45.889965,"longitude":3.120498,"region":"Auvergne-Rhône-Alpes","nombrePOI":15},{"nom":"Courbevoie","latitude":48.89831,"longitude":2.24804,"region":"Île-de-France","nombrePOI":15},{"nom":"Pierrefitte - Stains","latitude":48.96409,"longitude":2.37213,"region":"Île-de-France","nombrePOI":15},{"nom":"Persan - Beaumont","latitude":49.14795,"longitude":2.27914,"region":"Île-de-France","nombrePOI":15},{"nom":"Voutré","latitude":48.1340521,"longitude":-0.2921804,"region":"Pays de la Loire","nombrePOI":15},{"nom":"Sanry-sur-Nied","latitude":49.0445991,"longitude":6.3399775,"region":"Grand Est","nombrePOI":15},{"nom":"Groslay","latitude":48.98462,"longitude":2.35358,"region":"Île-de-France","nombrePOI":15},{"nom":"Gisors","latitude":49.28512,"longitude":1.78455,"region":"Hauts-de-France","nombrePOI":15},{"nom":"L'Arbresle","latitude":45.833299,"longitude":4.618319,"region":"Auvergne-Rhône-Alpes","nombrePOI":15},{"nom":"Bayon","latitude":48.468046,"longitude":6.322569,"region":"Grand Est","nombrePOI":15},{"nom":"Igney","latitude":48.2709639,"longitude":6.3995463,"region":"Grand Est","nombrePOI":15},{"nom":"La Villette Saint-Prest","latitude":48.4827197,"longitude":1.5228734,"region":"Île-de-France","nombrePOI":15},{"nom":"Casino Lacroix Laval","latitude":45.7878115,"longitude":4.7309383,"region":"Auvergne-Rhône-Alpes","nombrePOI":15},{"nom":"Bourg-Saint-Maurice","latitude":45.619036,"longitude":6.771273,"region":"Auvergne-Rhône-Alpes","nombrePOI":15},{"nom":"Amilly Ouerray","latitude":48.4381825,"longitude":1.3892882,"region":"Centre-Val de Loire","nombrePOI":15},{"nom":"Ranchot","latitude":47.1525633,"longitude":5.7246607,"region":"Bourgogne-Franche-Comté","nombrePOI":15},{"nom":"Grésy-sur-Aix","latitude":45.7245161,"longitude":5.9221751,"region":"Auvergne-Rhône-Alpes","nombrePOI":15},{"nom":"Domont","latitude":49.03268,"longitude":2.33746,"region":"Île-de-France","nombrePOI":15},{"nom":"Écouen - Ézanville","latitude":49.02273,"longitude":2.36325,"region":"Île-de-France","nombrePOI":15},{"nom":"Lentilly","latitude":45.82163,"longitude":4.667103,"region":"Auvergne-Rhône-Alpes","nombrePOI":15},{"nom":"Vougeot - Gilly-lès-Cîteaux","latitude":47.1755556,"longitude":4.9715685,"region":"Bourgogne-Franche-Comté","nombrePOI":15},{"nom":"Gevrey-Chambertin","latitude":47.2274694,"longitude":4.999058,"region":"Bourgogne-Franche-Comté","nombrePOI":15},{"nom":"Joué-lès-Tours","latitude":47.3541741,"longitude":0.6675586,"region":"Pays de la Loire","nombrePOI":15},{"nom":"Pertuis","latitude":43.6845547,"longitude":5.5037023,"region":"Provence-Alpes-Côte d'Azur","nombrePOI":15},{"nom":"Messein","latitude":48.6128788,"longitude":6.1378364,"region":"Grand Est","nombrePOI":15},{"nom":"Loches","latitude":47.130464,"longitude":1.000467,"region":"Centre-Val de Loire","nombrePOI":15},{"nom":"Machecoul","latitude":46.9905038,"longitude":-1.8227524,"region":"Pays de la Loire","nombrePOI":15},{"nom":"Saint-Denis","latitude":48.9354933,"longitude":2.3459524,"region":"Île-de-France","nombrePOI":14},{"nom":"Strasbourg","latitude":48.584967,"longitude":7.734584,"region":"Grand Est","nombrePOI":14},{"nom":"Mommenheim","latitude":48.7561587,"longitude":7.6422273,"region":"Grand Est","nombrePOI":14},{"nom":"La Défense","latitude":48.89308,"longitude":2.23763,"region":"Île-de-France","nombrePOI":14},{"nom":"Millau","latitude":44.102344,"longitude":3.07457,"region":"Auvergne-Rhône-Alpes","nombrePOI":14},{"nom":"Saint-Germain-au-Mont-d'Or","latitude":45.888352,"longitude":4.804265,"region":"Auvergne-Rhône-Alpes","nombrePOI":14},{"nom":"Les Martres-de-Veyre","latitude":45.688155,"longitude":3.193228,"region":"Auvergne-Rhône-Alpes","nombrePOI":14},{"nom":"Chessy","latitude":45.885545,"longitude":4.6222625,"region":"Auvergne-Rhône-Alpes","nombrePOI":14},{"nom":"Issé","latitude":47.6268289,"longitude":-1.45068,"region":"Bretagne","nombrePOI":14},{"nom":"Paris Austerlitz","latitude":48.842285,"longitude":2.364891,"region":"Île-de-France","nombrePOI":14},{"nom":"Saint-Michel Notre-Dame","latitude":48.85348,"longitude":2.34545,"region":"Île-de-France","nombrePOI":14},{"nom":"Chauny","latitude":49.61119,"longitude":3.22354,"region":"Hauts-de-France","nombrePOI":14},{"nom":"Caen","latitude":49.176354,"longitude":-0.347613,"region":"Normandie","nombrePOI":14},{"nom":"Saint-Lô","latitude":49.116975,"longitude":-1.099525,"region":"Normandie","nombrePOI":14},{"nom":"Aubigné-Racan","latitude":47.686945,"longitude":0.2657714,"region":"Pays de la Loire","nombrePOI":14},{"nom":"Montpellier Sud de France","latitude":43.594787,"longitude":3.924623,"region":"Occitanie","nombrePOI":14},{"nom":"Lalbenque - Fontanes","latitude":44.3332389,"longitude":1.5116628,"region":"Occitanie","nombrePOI":14},{"nom":"Périgueux","latitude":45.187408,"longitude":0.707879,"region":"Nouvelle-Aquitaine","nombrePOI":14},{"nom":"Bénestroff","latitude":48.90656,"longitude":6.75266,"region":"Grand Est","nombrePOI":14},{"nom":"Saint-Pierre-des-Corps","latitude":47.386099,"longitude":0.72355,"region":"Pays de la Loire","nombrePOI":14},{"nom":"Villers-Cotterêts","latitude":49.25026,"longitude":3.0937,"region":"Hauts-de-France","nombrePOI":14},{"nom":"Malaunay - Le Houlme","latitude":49.5133331,"longitude":1.0395776,"region":"Normandie","nombrePOI":14},{"nom":"Saint-Étienne-du-Rouvray","latitude":49.3771553,"longitude":1.1095673,"region":"Normandie","nombrePOI":14},{"nom":"La Fère","latitude":49.65802,"longitude":3.36981,"region":"Hauts-de-France","nombrePOI":14},{"nom":"Couëron","latitude":47.2220412,"longitude":-1.7235014,"region":"Pays de la Loire","nombrePOI":14},{"nom":"L'Isle-sur-le-Doubs","latitude":47.4473777,"longitude":6.5812614,"region":"Grand Est","nombrePOI":14},{"nom":"Surgères","latitude":46.113238,"longitude":-0.762284,"region":"Nouvelle-Aquitaine","nombrePOI":14},{"nom":"Laguépie","latitude":44.1455256,"longitude":1.9692195,"region":"Occitanie","nombrePOI":14},{"nom":"La Garenne-Colombes","latitude":48.9093952,"longitude":2.2396414,"region":"Île-de-France","nombrePOI":14},{"nom":"Lyon Gorge de Loup","latitude":45.766078,"longitude":4.804631,"region":"Auvergne-Rhône-Alpes","nombrePOI":14},{"nom":"Krimmeri Meinau","latitude":48.56358,"longitude":7.75259,"region":"Grand Est","nombrePOI":14},{"nom":"Rives","latitude":45.357535,"longitude":5.491893,"region":"Auvergne-Rhône-Alpes","nombrePOI":14},{"nom":"Virieu sur Bourbre","latitude":45.491703,"longitude":5.4721424,"region":"Auvergne-Rhône-Alpes","nombrePOI":14},{"nom":"Bouffémont - Moisselles","latitude":49.04514,"longitude":2.32272,"region":"Île-de-France","nombrePOI":14},{"nom":"Harfleur","latitude":49.5136336,"longitude":0.1989828,"region":"Normandie","nombrePOI":14},{"nom":"Bouthéon","latitude":45.5246289,"longitude":4.2777187,"region":"Auvergne-Rhône-Alpes","nombrePOI":14},{"nom":"Rocamadour - Padirac","latitude":44.8183562,"longitude":1.6573487,"region":"Occitanie","nombrePOI":14},{"nom":"Bischheim","latitude":48.6118352,"longitude":7.7422165,"region":"Grand Est","nombrePOI":14},{"nom":"Saint-Michel - Valloire","latitude":45.216916,"longitude":6.4719135,"region":"Auvergne-Rhône-Alpes","nombrePOI":14},{"nom":"Paris Gare de Lyon","latitude":48.844888,"longitude":2.37352,"region":"Île-de-France","nombrePOI":13},{"nom":"Paris Saint-Lazare","latitude":48.876242,"longitude":2.325331,"region":"Île-de-France","nombrePOI":13},{"nom":"Luzy","latitude":46.7940793,"longitude":3.9693245,"region":"Bourgogne-Franche-Comté","nombrePOI":13},{"nom":"Roquebrune-Cap-Martin","latitude":43.7606178,"longitude":7.457343,"region":"Provence-Alpes-Côte d'Azur","nombrePOI":13},{"nom":"Carnoles","latitude":43.76203,"longitude":7.48139,"region":"Provence-Alpes-Côte d'Azur","nombrePOI":13},{"nom":"Argenteuil","latitude":48.94686,"longitude":2.25727,"region":"Île-de-France","nombrePOI":13},{"nom":"Val-de-Reuil","latitude":49.275437,"longitude":1.224147,"region":"Normandie","nombrePOI":13},{"nom":"Châteaudun","latitude":48.073463,"longitude":1.338133,"region":"Centre-Val de Loire","nombrePOI":13},{"nom":"Villefranche-sur-Saône","latitude":45.9845,"longitude":4.72077,"region":"Auvergne-Rhône-Alpes","nombrePOI":13},{"nom":"Saint-André-le-Gaz","latitude":45.544518,"longitude":5.524187,"region":"Auvergne-Rhône-Alpes","nombrePOI":13},{"nom":"Châtillon d'Azergues","latitude":45.8751815,"longitude":4.6451164,"region":"Auvergne-Rhône-Alpes","nombrePOI":13},{"nom":"Lozanne","latitude":45.85414,"longitude":4.681501,"region":"Auvergne-Rhône-Alpes","nombrePOI":13},{"nom":"Nanterre Université","latitude":48.90122,"longitude":2.2158277,"region":"Île-de-France","nombrePOI":13},{"nom":"Bois-Colombes","latitude":48.91348,"longitude":2.27256,"region":"Île-de-France","nombrePOI":13},{"nom":"Le Stade","latitude":48.93093,"longitude":2.26056,"region":"Île-de-France","nombrePOI":13},{"nom":"Marseille-en-Beauvaisis","latitude":49.5709066,"longitude":1.9546349,"region":"Hauts-de-France","nombrePOI":13},{"nom":"Invalides","latitude":48.8619133,"longitude":2.3150151,"region":"Île-de-France","nombrePOI":13},{"nom":"Musée d'Orsay","latitude":48.86079,"longitude":2.325671,"region":"Île-de-France","nombrePOI":13},{"nom":"Champagne-Ardenne TGV","latitude":49.214806,"longitude":3.994632,"region":"Grand Est","nombrePOI":13},{"nom":"Lorraine TGV","latitude":48.947773,"longitude":6.169838,"region":"Grand Est","nombrePOI":13},{"nom":"Franconville - Le Plessis-Bouchard","latitude":48.99358,"longitude":2.23514,"region":"Île-de-France","nombrePOI":13},{"nom":"Hochfelden","latitude":48.7554199,"longitude":7.572355,"region":"Grand Est","nombrePOI":13},{"nom":"Schwindratzheim","latitude":48.7536468,"longitude":7.6005468,"region":"Grand Est","nombrePOI":13},{"nom":"Saint-Médard-de-Guizières","latitude":45.0155723,"longitude":-0.0488253,"region":"Occitanie","nombrePOI":13},{"nom":"Grenoble Universités - Gières","latitude":45.184877,"longitude":5.78474,"region":"Auvergne-Rhône-Alpes","nombrePOI":13},{"nom":"Folligny","latitude":48.8299461,"longitude":-1.4072231,"region":"Bretagne","nombrePOI":13},{"nom":"Marbache","latitude":48.8010405,"longitude":6.1091755,"region":"Grand Est","nombrePOI":13},{"nom":"Les Vallées","latitude":48.913408,"longitude":2.257909,"region":"Île-de-France","nombrePOI":13},{"nom":"Voiron","latitude":45.364037,"longitude":5.595054,"region":"Auvergne-Rhône-Alpes","nombrePOI":13},{"nom":"Baillargues","latitude":43.6533234,"longitude":4.0071585,"region":"Occitanie","nombrePOI":13},{"nom":"Chambly","latitude":49.16362,"longitude":2.24048,"region":"Île-de-France","nombrePOI":13},{"nom":"Gazeran","latitude":48.6259183,"longitude":1.7718857,"region":"Île-de-France","nombrePOI":13},{"nom":"Muizon","latitude":49.2781012,"longitude":3.8915287,"region":"Grand Est","nombrePOI":13},{"nom":"Saint-Pierre-d'Albigny","latitude":45.557397,"longitude":6.156151,"region":"Auvergne-Rhône-Alpes","nombrePOI":13},{"nom":"La Bastide - Saint-Laurent-les-Bains","latitude":44.5934829,"longitude":3.9042849,"region":"Auvergne-Rhône-Alpes","nombrePOI":13},{"nom":"Le Plessis-Belleville","latitude":49.0959033,"longitude":2.7448073,"region":"Île-de-France","nombrePOI":13},{"nom":"La Ferté-Bernard","latitude":48.1864887,"longitude":0.639711,"region":"Pays de la Loire","nombrePOI":13},{"nom":"Jarrie - Vizille","latitude":45.0854543,"longitude":5.7424487,"region":"Auvergne-Rhône-Alpes","nombrePOI":13},{"nom":"Albigny - Neuville","latitude":45.874921,"longitude":4.832874,"region":"Auvergne-Rhône-Alpes","nombrePOI":13},{"nom":"Bons-en-Chablais","latitude":46.270046,"longitude":6.366246,"region":"Bourgogne-Franche-Comté","nombrePOI":13},{"nom":"Quincieux","latitude":45.9068815,"longitude":4.7785643,"region":"Auvergne-Rhône-Alpes","nombrePOI":13},{"nom":"Corgoloin","latitude":47.0841982,"longitude":4.9171231,"region":"Bourgogne-Franche-Comté","nombrePOI":13},{"nom":"Montbarrey","latitude":47.0359922,"longitude":5.6366081,"region":"Bourgogne-Franche-Comté","nombrePOI":13},{"nom":"Menton","latitude":43.774444,"longitude":7.4933,"region":"Provence-Alpes-Côte d'Azur","nombrePOI":12},{"nom":"Menton Garavan","latitude":43.785202,"longitude":7.517297,"region":"Provence-Alpes-Côte d'Azur","nombrePOI":12},{"nom":"Cormeilles-en-Parisis","latitude":48.96864,"longitude":2.19358,"region":"Île-de-France","nombrePOI":12},{"nom":"Val d'Argenteuil","latitude":48.95042,"longitude":2.23088,"region":"Île-de-France","nombrePOI":12},{"nom":"Pont-de-l'Arche","latitude":49.3170928,"longitude":1.1596559,"region":"Normandie","nombrePOI":12},{"nom":"Issoire","latitude":45.543884,"longitude":3.25398,"region":"Auvergne-Rhône-Alpes","nombrePOI":12},{"nom":"Le Cendre - Orcet","latitude":45.723796,"longitude":3.188666,"region":"Auvergne-Rhône-Alpes","nombrePOI":12},{"nom":"Magenta","latitude":48.87986,"longitude":2.35835,"region":"Île-de-France","nombrePOI":12},{"nom":"Avallon","latitude":47.4957553,"longitude":3.9124463,"region":"Grand Est","nombrePOI":12},{"nom":"Louvres","latitude":49.0496573,"longitude":2.5018967,"region":"Île-de-France","nombrePOI":12},{"nom":"Colombes","latitude":48.92383,"longitude":2.25939,"region":"Île-de-France","nombrePOI":12},{"nom":"Châlons-en-Champagne","latitude":48.955252,"longitude":4.348656,"region":"Grand Est","nombrePOI":12},{"nom":"Pont de l'Alma","latitude":48.8625705,"longitude":2.3010287,"region":"Île-de-France","nombrePOI":12},{"nom":"Saint-Quentin","latitude":49.8400482,"longitude":3.2970089,"region":"Hauts-de-France","nombrePOI":12},{"nom":"La Tricherie","latitude":46.7288206,"longitude":0.4412021,"region":"Nouvelle-Aquitaine","nombrePOI":12},{"nom":"Sorgues - Châteauneuf-du-Pape","latitude":44.0053909,"longitude":4.8756182,"region":"Provence-Alpes-Côte d'Azur","nombrePOI":12},{"nom":"Paris Est","latitude":48.876742,"longitude":2.358424,"region":"Île-de-France","nombrePOI":12},{"nom":"Moirans","latitude":45.322185,"longitude":5.581915,"region":"Auvergne-Rhône-Alpes","nombrePOI":12},{"nom":"Berthelming","latitude":48.8096475,"longitude":7.0087859,"region":"Grand Est","nombrePOI":12},{"nom":"Beaugency","latitude":47.778365,"longitude":1.625938,"region":"Centre-Val de Loire","nombrePOI":12},{"nom":"Versigny","latitude":49.6574494,"longitude":3.4335692,"region":"Grand Est","nombrePOI":12},{"nom":"Jouy","latitude":48.5102582,"longitude":1.5573972,"region":"Île-de-France","nombrePOI":12},{"nom":"Le Breuil-sur-Couze","latitude":45.4670838,"longitude":3.2621478,"region":"Auvergne-Rhône-Alpes","nombrePOI":12},{"nom":"Lure","latitude":47.683269,"longitude":6.4925787,"region":"Grand Est","nombrePOI":12},{"nom":"Mouans-Sartoux","latitude":43.620318,"longitude":6.974114,"region":"Provence-Alpes-Côte d'Azur","nombrePOI":12},{"nom":"Orchamps","latitude":47.1500962,"longitude":5.659147,"region":"Bourgogne-Franche-Comté","nombrePOI":12},{"nom":"Frénouville - Cagny","latitude":49.1411192,"longitude":-0.2603256,"region":"Normandie","nombrePOI":12},{"nom":"Fleurieux-sur-l'Arbresle","latitude":45.8449944,"longitude":4.6603815,"region":"Auvergne-Rhône-Alpes","nombrePOI":12},{"nom":"Saint-Laurent - Gainneville","latitude":49.5285649,"longitude":0.2522963,"region":"Normandie","nombrePOI":12},{"nom":"Couzon-au-Mont-d'Or","latitude":45.8486737,"longitude":4.8294786,"region":"Auvergne-Rhône-Alpes","nombrePOI":12},{"nom":"Avenay","latitude":49.0647826,"longitude":4.043689,"region":"Grand Est","nombrePOI":12},{"nom":"Liévin","latitude":50.434139,"longitude":2.7716316,"region":"Hauts-de-France","nombrePOI":12},{"nom":"Flavy-le-Martel","latitude":49.7187375,"longitude":3.1905076,"region":"Hauts-de-France","nombrePOI":12},{"nom":"Druye","latitude":47.3070191,"longitude":0.5354805,"region":"Pays de la Loire","nombrePOI":12},{"nom":"Vaucelles","latitude":49.02193,"longitude":2.22885,"region":"Île-de-France","nombrePOI":11},{"nom":"Drancy","latitude":48.93298,"longitude":2.45497,"region":"Île-de-France","nombrePOI":11},{"nom":"Massy - Palaiseau","latitude":48.7264211,"longitude":2.2575281,"region":"Île-de-France","nombrePOI":11},{"nom":"Limersheim","latitude":48.4617328,"longitude":7.6603581,"region":"Grand Est","nombrePOI":11},{"nom":"Saint-Cloud","latitude":48.84541,"longitude":2.21687,"region":"Île-de-France","nombrePOI":11},{"nom":"Asnières-sur-Seine","latitude":48.9058,"longitude":2.28324,"region":"Île-de-France","nombrePOI":11},{"nom":"Pont Cardinet","latitude":48.88755,"longitude":2.31425,"region":"Île-de-France","nombrePOI":11},{"nom":"Beaune","latitude":47.023053,"longitude":4.848379,"region":"Bourgogne-Franche-Comté","nombrePOI":11},{"nom":"Oissel","latitude":49.34306,"longitude":1.101799,"region":"Normandie","nombrePOI":11},{"nom":"Clermont-Ferrand","latitude":45.778945,"longitude":3.100543,"region":"Auvergne-Rhône-Alpes","nombrePOI":11},{"nom":"Massy Europe","latitude":48.72342,"longitude":2.27194,"region":"Île-de-France","nombrePOI":11},{"nom":"Bécon les Bruyères","latitude":48.90592,"longitude":2.26838,"region":"Île-de-France","nombrePOI":11},{"nom":"Pantin","latitude":48.898096,"longitude":2.400685,"region":"Île-de-France","nombrePOI":11},{"nom":"Bénesse-Maremne","latitude":43.6277484,"longitude":-1.3698505,"region":"Nouvelle-Aquitaine","nombrePOI":11},{"nom":"La Tour-du-Pin","latitude":45.560277,"longitude":5.450092,"region":"Auvergne-Rhône-Alpes","nombrePOI":11},{"nom":"Cessieu","latitude":45.5611596,"longitude":5.3761179,"region":"Auvergne-Rhône-Alpes","nombrePOI":11},{"nom":"Vénissieux","latitude":45.705551,"longitude":4.888109,"region":"Auvergne-Rhône-Alpes","nombrePOI":11},{"nom":"Bibliothèque François Mitterrand","latitude":48.82984,"longitude":2.37684,"region":"Île-de-France","nombrePOI":11},{"nom":"Vitry-sur-Seine","latitude":48.800768,"longitude":2.402229,"region":"Île-de-France","nombrePOI":11},{"nom":"Ivry-sur-Seine","latitude":48.814371,"longitude":2.39099,"region":"Île-de-France","nombrePOI":11},{"nom":"Reims Maison Blanche","latitude":49.2336853,"longitude":4.0224927,"region":"Grand Est","nombrePOI":11},{"nom":"Vaucresson","latitude":48.83688,"longitude":2.15255,"region":"Île-de-France","nombrePOI":11},{"nom":"La Celle-Saint-Cloud","latitude":48.84259,"longitude":2.13797,"region":"Île-de-France","nombrePOI":11},{"nom":"Évron","latitude":48.155501,"longitude":-0.397338,"region":"Pays de la Loire","nombrePOI":11},{"nom":"Garches - Marnes-la-Coquette","latitude":48.83839,"longitude":2.18692,"region":"Île-de-France","nombrePOI":11},{"nom":"Morhange","latitude":48.9366239,"longitude":6.6590266,"region":"Grand Est","nombrePOI":11},{"nom":"Saint-Julien-en-Genevois","latitude":46.142044,"longitude":6.0855358,"region":"Auvergne-Rhône-Alpes","nombrePOI":11},{"nom":"Sathonay - Rillieux","latitude":45.820264,"longitude":4.875315,"region":"Auvergne-Rhône-Alpes","nombrePOI":11},{"nom":"Chamousset","latitude":45.5575744,"longitude":6.2067432,"region":"Auvergne-Rhône-Alpes","nombrePOI":11},{"nom":"Lens","latitude":50.426818,"longitude":2.828254,"region":"Hauts-de-France","nombrePOI":11},{"nom":"Tours","latitude":47.389781,"longitude":0.693703,"region":"Pays de la Loire","nombrePOI":11},{"nom":"Le Tréport - Mers-les-Bains","latitude":50.0628592,"longitude":1.3763738,"region":"Hauts-de-France","nombrePOI":11},{"nom":"Château-Thierry","latitude":49.038224,"longitude":3.409514,"region":"Île-de-France","nombrePOI":11},{"nom":"Saint-Dizier","latitude":48.642404,"longitude":4.947855,"region":"Grand Est","nombrePOI":11},{"nom":"Cousance","latitude":46.5353569,"longitude":5.3868216,"region":"Bourgogne-Franche-Comté","nombrePOI":11},{"nom":"Saint-Amour","latitude":46.4338244,"longitude":5.3341853,"region":"Bourgogne-Franche-Comté","nombrePOI":11},{"nom":"Bully - Grenay","latitude":50.44843,"longitude":2.73317,"region":"Hauts-de-France","nombrePOI":11},{"nom":"Albi Madeleine","latitude":43.938011,"longitude":2.1409629,"region":"Occitanie","nombrePOI":11},{"nom":"Massy TGV","latitude":48.725758,"longitude":2.261254,"region":"Île-de-France","nombrePOI":11},{"nom":"Cognac","latitude":45.684682,"longitude":-0.326112,"region":"Nouvelle-Aquitaine","nombrePOI":11},{"nom":"Lauterbourg","latitude":48.9676973,"longitude":8.1826817,"region":"Grand Est","nombrePOI":11},{"nom":"Neuves-Maisons","latitude":48.6147666,"longitude":6.1078904,"region":"Grand Est","nombrePOI":11},{"nom":"Pont-Saint-Vincent","latitude":48.6023732,"longitude":6.1031502,"region":"Grand Est","nombrePOI":11},{"nom":"Montendre","latitude":45.2805457,"longitude":-0.3961726,"region":"Nouvelle-Aquitaine","nombrePOI":11},{"nom":"Collonges - Fontaines","latitude":45.8291102,"longitude":4.8466136,"region":"Auvergne-Rhône-Alpes","nombrePOI":11},{"nom":"Château-Renault","latitude":47.5877961,"longitude":0.9015238,"region":"Pays de la Loire","nombrePOI":11},{"nom":"Aubiet","latitude":43.6502068,"longitude":0.7891179,"region":"Occitanie","nombrePOI":11},{"nom":"Avion","latitude":50.40723,"longitude":2.83365,"region":"Hauts-de-France","nombrePOI":11},{"nom":"Eu","latitude":50.0541988,"longitude":1.416837,"region":"Hauts-de-France","nombrePOI":11},{"nom":"Taverny","latitude":49.02536,"longitude":2.22187,"region":"Île-de-France","nombrePOI":10},{"nom":"Fegersheim - Lipsheim","latitude":48.4905892,"longitude":7.6724806,"region":"Grand Est","nombrePOI":10},{"nom":"Sèvres - Ville-d'Avray","latitude":48.82746,"longitude":2.20051,"region":"Île-de-France","nombrePOI":10},{"nom":"Suresnes Mont Valérien","latitude":48.87155,"longitude":2.22131,"region":"Île-de-France","nombrePOI":10},{"nom":"Clichy - Levallois","latitude":48.89678,"longitude":2.2982,"region":"Île-de-France","nombrePOI":10},{"nom":"Bièvres","latitude":48.7513289,"longitude":2.2157279,"region":"Île-de-France","nombrePOI":10},{"nom":"Grenoble","latitude":45.191493,"longitude":5.714584,"region":"Auvergne-Rhône-Alpes","nombrePOI":10},{"nom":"Noisy-le-Sec","latitude":48.896288,"longitude":2.459306,"region":"Île-de-France","nombrePOI":10},{"nom":"Sèvres Rive Gauche","latitude":48.8214311,"longitude":2.2147536,"region":"Île-de-France","nombrePOI":10},{"nom":"Bellevue","latitude":48.8190033,"longitude":2.2296743,"region":"Île-de-France","nombrePOI":10},{"nom":"Meudon","latitude":48.8147527,"longitude":2.2410999,"region":"Île-de-France","nombrePOI":10},{"nom":"Bourgoin-Jallieu","latitude":45.583954,"longitude":5.273401,"region":"Auvergne-Rhône-Alpes","nombrePOI":10},{"nom":"Rosny-sous-Bois","latitude":48.87099,"longitude":2.48559,"region":"Île-de-France","nombrePOI":10},{"nom":"Crépieux la Pape","latitude":45.8038348,"longitude":4.8922918,"region":"Auvergne-Rhône-Alpes","nombrePOI":10},{"nom":"Survilliers - Fosses","latitude":49.09961,"longitude":2.52527,"region":"Île-de-France","nombrePOI":10},{"nom":"Choisy-le-Roi","latitude":48.763974,"longitude":2.411102,"region":"Île-de-France","nombrePOI":10},{"nom":"Les Ardoines","latitude":48.782945,"longitude":2.409046,"region":"Île-de-France","nombrePOI":10},{"nom":"Saint-Ouen","latitude":48.90531,"longitude":2.32257,"region":"Île-de-France","nombrePOI":10},{"nom":"Les Grésillons","latitude":48.92007,"longitude":2.31441,"region":"Île-de-France","nombrePOI":10},{"nom":"Gennevilliers","latitude":48.93368,"longitude":2.30699,"region":"Île-de-France","nombrePOI":10},{"nom":"Montigny - Beauchamp","latitude":49.00758,"longitude":2.19767,"region":"Île-de-France","nombrePOI":10},{"nom":"Franchet d'Esperey","latitude":49.2425356,"longitude":4.013869,"region":"Grand Est","nombrePOI":10},{"nom":"Le Vert de Maisons","latitude":48.78934,"longitude":2.43148,"region":"Île-de-France","nombrePOI":10},{"nom":"Maisons-Alfort - Alfortville","latitude":48.802071,"longitude":2.426977,"region":"Île-de-France","nombrePOI":10},{"nom":"Champagne-sur-Oise","latitude":49.13573,"longitude":2.24156,"region":"Île-de-France","nombrePOI":10},{"nom":"Gimont Cahuzac","latitude":43.6330525,"longitude":0.8676246,"region":"Occitanie","nombrePOI":10},{"nom":"Chasse-sur-Rhône","latitude":45.58237,"longitude":4.794843,"region":"Auvergne-Rhône-Alpes","nombrePOI":10},{"nom":"Montpellier Saint-Roch","latitude":43.604738,"longitude":3.880674,"region":"Occitanie","nombrePOI":10},{"nom":"Albias","latitude":44.0919078,"longitude":1.4448012,"region":"Occitanie","nombrePOI":10},{"nom":"Saint-Seurin-sur-l'Isle","latitude":45.0114075,"longitude":-0.0026606,"region":"Occitanie","nombrePOI":10},{"nom":"Cluses","latitude":46.061447,"longitude":6.582663,"region":"Auvergne-Rhône-Alpes","nombrePOI":10},{"nom":"Les Échets","latitude":45.8746675,"longitude":4.9108215,"region":"Auvergne-Rhône-Alpes","nombrePOI":10},{"nom":"Verneuil-sur-Avre","latitude":48.7424857,"longitude":0.9291925,"region":"Centre-Val de Loire","nombrePOI":10},{"nom":"Évian-les-Bains","latitude":46.397915,"longitude":6.577457,"region":"Bourgogne-Franche-Comté","nombrePOI":10},{"nom":"Goncelin","latitude":45.341941,"longitude":5.974136,"region":"Auvergne-Rhône-Alpes","nombrePOI":10},{"nom":"Villedieu-les-Poêles","latitude":48.8340495,"longitude":-1.225559,"region":"Bretagne","nombrePOI":10},{"nom":"Dieulouard","latitude":48.843367,"longitude":6.071489,"region":"Grand Est","nombrePOI":10},{"nom":"Bondy","latitude":48.894208,"longitude":2.4786,"region":"Île-de-France","nombrePOI":10},{"nom":"Crépy - Couvron","latitude":49.6233401,"longitude":3.5167165,"region":"Grand Est","nombrePOI":10},{"nom":"Vergèze - Codognan","latitude":43.739877,"longitude":4.218842,"region":"Occitanie","nombrePOI":10},{"nom":"Liverdun","latitude":48.7493158,"longitude":6.0617374,"region":"Grand Est","nombrePOI":10},{"nom":"Loison-sous-Lens","latitude":50.4401891,"longitude":2.8592403,"region":"Hauts-de-France","nombrePOI":10},{"nom":"Sallaumines","latitude":50.4223266,"longitude":2.8556769,"region":"Hauts-de-France","nombrePOI":10},{"nom":"Vorey","latitude":45.1829093,"longitude":3.911422,"region":"Auvergne-Rhône-Alpes","nombrePOI":10},{"nom":"Pont de Sallaumines","latitude":50.4157922,"longitude":2.8632044,"region":"Hauts-de-France","nombrePOI":10},{"nom":"Diemeringen","latitude":48.9405,"longitude":7.18529,"region":"Grand Est","nombrePOI":10},{"nom":"Auxonne","latitude":47.192663,"longitude":5.37737,"region":"Bourgogne-Franche-Comté","nombrePOI":10},{"nom":"Moyeuvre-Grande","latitude":49.246713,"longitude":6.043226,"region":"Grand Est","nombrePOI":10},{"nom":"Homécourt","latitude":49.2182988,"longitude":5.9991714,"region":"Grand Est","nombrePOI":10},{"nom":"Nuits-Saint-Georges","latitude":47.130545,"longitude":4.956204,"region":"Bourgogne-Franche-Comté","nombrePOI":10},{"nom":"Sisteron","latitude":44.1902025,"longitude":5.9465888,"region":"Auvergne-Rhône-Alpes","nombrePOI":10},{"nom":"Étalans","latitude":47.155884,"longitude":6.2706173,"region":"Bourgogne-Franche-Comté","nombrePOI":10},{"nom":"Voreppe","latitude":45.290417,"longitude":5.632119,"region":"Auvergne-Rhône-Alpes","nombrePOI":10},{"nom":"Anché - Voulon","latitude":46.3496187,"longitude":0.2503424,"region":"Nouvelle-Aquitaine","nombrePOI":10},{"nom":"Cubzac-les-Ponts","latitude":44.9729407,"longitude":-0.4590937,"region":"Nouvelle-Aquitaine","nombrePOI":10},{"nom":"Vimy","latitude":50.3732316,"longitude":2.8229549,"region":"Hauts-de-France","nombrePOI":10},{"nom":"Épierre - Saint-Léger","latitude":45.457027,"longitude":6.292521,"region":"Auvergne-Rhône-Alpes","nombrePOI":10},{"nom":"Niversac","latitude":45.1383083,"longitude":0.8082195,"region":"Nouvelle-Aquitaine","nombrePOI":10},{"nom":"Val de Fontenay","latitude":48.854238,"longitude":2.489097,"region":"Île-de-France","nombrePOI":9},{"nom":"Versailles Rive Droite","latitude":48.8096525,"longitude":2.1347523,"region":"Île-de-France","nombrePOI":9},{"nom":"Montreuil","latitude":48.8067323,"longitude":2.1511693,"region":"Île-de-France","nombrePOI":9},{"nom":"Viroflay Rive Droite","latitude":48.8056695,"longitude":2.1683208,"region":"Île-de-France","nombrePOI":9},{"nom":"Chaville Rive Droite","latitude":48.81213,"longitude":2.18785,"region":"Île-de-France","nombrePOI":9},{"nom":"Joigny","latitude":47.973843,"longitude":3.393082,"region":"Grand Est","nombrePOI":9},{"nom":"Viviez - Decazeville","latitude":44.5555678,"longitude":2.2182582,"region":"Auvergne-Rhône-Alpes","nombrePOI":9},{"nom":"Cagnes-sur-Mer","latitude":43.65813,"longitude":7.14864,"region":"Provence-Alpes-Côte d'Azur","nombrePOI":9},{"nom":"La Frette - Montigny","latitude":48.98035,"longitude":2.18019,"region":"Île-de-France","nombrePOI":9},{"nom":"Gaillon - Aubevoye","latitude":49.174626,"longitude":1.352461,"region":"Normandie","nombrePOI":9},{"nom":"Chaumont","latitude":48.10976,"longitude":5.1346,"region":"Grand Est","nombrePOI":9},{"nom":"Bonneval","latitude":48.1862958,"longitude":1.3861845,"region":"Centre-Val de Loire","nombrePOI":9},{"nom":"Igny","latitude":48.7399008,"longitude":2.2313626,"region":"Île-de-France","nombrePOI":9},{"nom":"Puteaux","latitude":48.88351,"longitude":2.2335,"region":"Île-de-France","nombrePOI":9},{"nom":"Chaville Rive Gauche","latitude":48.8047497,"longitude":2.1882472,"region":"Île-de-France","nombrePOI":9},{"nom":"Clamart","latitude":48.813844,"longitude":2.2733273,"region":"Île-de-France","nombrePOI":9},{"nom":"Villiers-sur-Marne - Le Plessis-Trévise","latitude":48.823039,"longitude":2.541761,"region":"Île-de-France","nombrePOI":9},{"nom":"Les Boullereaux Champigny","latitude":48.824926,"longitude":2.511884,"region":"Île-de-France","nombrePOI":9},{"nom":"Nogent - Le Perreux","latitude":48.838846,"longitude":2.494331,"region":"Île-de-France","nombrePOI":9},{"nom":"Houilles - Carrières-sur-Seine","latitude":48.9199636,"longitude":2.1850828,"region":"Île-de-France","nombrePOI":9},{"nom":"Reims","latitude":49.258978,"longitude":4.024435,"region":"Grand Est","nombrePOI":9},{"nom":"Massy - Verrières","latitude":48.7343097,"longitude":2.2736721,"region":"Île-de-France","nombrePOI":9},{"nom":"Porte de Clichy","latitude":48.89399,"longitude":2.31462,"region":"Île-de-France","nombrePOI":9},{"nom":"Carentan","latitude":49.302482,"longitude":-1.244938,"region":"Normandie","nombrePOI":9},{"nom":"Coutances","latitude":49.042928,"longitude":-1.441726,"region":"Normandie","nombrePOI":9},{"nom":"Saint-Égrève Saint-Robert","latitude":45.2357234,"longitude":5.6712687,"region":"Auvergne-Rhône-Alpes","nombrePOI":9},{"nom":"Le Val d'Or","latitude":48.85645,"longitude":2.21636,"region":"Île-de-France","nombrePOI":9},{"nom":"Pont-à-Mousson","latitude":48.90058,"longitude":6.050842,"region":"Grand Est","nombrePOI":9},{"nom":"Valleiry","latitude":46.1092875,"longitude":5.96735,"region":"Auvergne-Rhône-Alpes","nombrePOI":9},{"nom":"Marignier","latitude":46.0887815,"longitude":6.507826,"region":"Auvergne-Rhône-Alpes","nombrePOI":9},{"nom":"Le Chénay Gagny","latitude":48.877129,"longitude":2.552692,"region":"Île-de-France","nombrePOI":9},{"nom":"Saint-Martin-le-Beau","latitude":47.3552058,"longitude":0.9058418,"region":"Pays de la Loire","nombrePOI":9},{"nom":"Azay-sur-Cher","latitude":47.3652695,"longitude":0.8599885,"region":"Pays de la Loire","nombrePOI":9},{"nom":"Digoin","latitude":46.4851604,"longitude":3.9876537,"region":"Bourgogne-Franche-Comté","nombrePOI":9},{"nom":"Chézy-sur-Marne","latitude":48.9919109,"longitude":3.3644624,"region":"Île-de-France","nombrePOI":9},{"nom":"Grasse","latitude":43.653317,"longitude":6.925524,"region":"Provence-Alpes-Côte d'Azur","nombrePOI":9},{"nom":"Longwy","latitude":49.5129923,"longitude":5.7696358,"region":"Grand Est","nombrePOI":9},{"nom":"Biot","latitude":43.610951,"longitude":7.12609,"region":"Provence-Alpes-Côte d'Azur","nombrePOI":9},{"nom":"Coron de Méricourt","latitude":50.4150048,"longitude":2.8854084,"region":"Hauts-de-France","nombrePOI":9},{"nom":"Beauvoir-sur-Niort","latitude":46.1768857,"longitude":-0.4687544,"region":"Nouvelle-Aquitaine","nombrePOI":9},{"nom":"Saint-Georges-de-Commiers","latitude":45.0437667,"longitude":5.7017874,"region":"Auvergne-Rhône-Alpes","nombrePOI":9},{"nom":"Viarmes","latitude":49.11692,"longitude":2.36838,"region":"Île-de-France","nombrePOI":9},{"nom":"Montsoult - Maffliers","latitude":49.06611,"longitude":2.32229,"region":"Île-de-France","nombrePOI":9},{"nom":"Beslé","latitude":47.6988788,"longitude":-1.8706374,"region":"Bretagne","nombrePOI":9},{"nom":"Saint-Aignan - Noyers","latitude":47.2869126,"longitude":1.3838369,"region":"Centre-Val de Loire","nombrePOI":9},{"nom":"Gien","latitude":47.699088,"longitude":2.636205,"region":"Centre-Val de Loire","nombrePOI":9},{"nom":"Champs - Saint-Bris","latitude":47.7388182,"longitude":3.6034756,"region":"Grand Est","nombrePOI":9},{"nom":"Saint-Pierre-sur-Dives","latitude":49.0231057,"longitude":-0.0405855,"region":"Normandie","nombrePOI":9},{"nom":"Milly-sur-Thérain","latitude":49.5035256,"longitude":1.988233,"region":"Hauts-de-France","nombrePOI":9},{"nom":"Sainte-Cécile-d'Andorge","latitude":44.2554362,"longitude":3.9758497,"region":"Auvergne-Rhône-Alpes","nombrePOI":9},{"nom":"Saint-Julien-du-Sault","latitude":48.0269195,"longitude":3.302688,"region":"Bourgogne-Franche-Comté","nombrePOI":8},{"nom":"Seyssel - Corbonod","latitude":45.9630307,"longitude":5.8315162,"region":"Auvergne-Rhône-Alpes","nombrePOI":8},{"nom":"Juan les Pins","latitude":43.570896,"longitude":7.11144,"region":"Provence-Alpes-Côte d'Azur","nombrePOI":8},{"nom":"Antibes","latitude":43.585784,"longitude":7.119498,"region":"Provence-Alpes-Côte d'Azur","nombrePOI":8},{"nom":"Versailles Chantiers","latitude":48.7958264,"longitude":2.1358827,"region":"Île-de-France","nombrePOI":8},{"nom":"Vauboyen","latitude":48.7590575,"longitude":2.192119,"region":"Île-de-France","nombrePOI":8},{"nom":"Viroflay Rive Gauche","latitude":48.800517,"longitude":2.1711466,"region":"Île-de-France","nombrePOI":8},{"nom":"L'Isle-d'Abeau","latitude":45.607645,"longitude":5.21969,"region":"Auvergne-Rhône-Alpes","nombrePOI":8},{"nom":"Sartrouville","latitude":48.9379523,"longitude":2.1575173,"region":"Île-de-France","nombrePOI":8},{"nom":"Miribel","latitude":45.822088,"longitude":4.95394,"region":"Auvergne-Rhône-Alpes","nombrePOI":8},{"nom":"Goussainville","latitude":49.0240732,"longitude":2.4632464,"region":"Île-de-France","nombrePOI":8},{"nom":"Les Noues","latitude":49.03234,"longitude":2.47633,"region":"Île-de-France","nombrePOI":8},{"nom":"Chaville - Vélizy","latitude":48.7998005,"longitude":2.1845267,"region":"Île-de-France","nombrePOI":8},{"nom":"Avenue Henri Martin","latitude":48.8644077,"longitude":2.272238,"region":"Île-de-France","nombrePOI":8},{"nom":"Granville","latitude":48.838456,"longitude":-1.587757,"region":"Bretagne","nombrePOI":8},{"nom":"Poix-Terron","latitude":49.6500011,"longitude":4.6365346,"region":"Grand Est","nombrePOI":8},{"nom":"Le Havre","latitude":49.492996,"longitude":0.125677,"region":"Normandie","nombrePOI":8},{"nom":"Bourg-en-Bresse","latitude":46.200351,"longitude":5.215063,"region":"Bourgogne-Franche-Comté","nombrePOI":8},{"nom":"Lisieux","latitude":49.138299,"longitude":0.231143,"region":"Normandie","nombrePOI":8},{"nom":"Valognes","latitude":49.505454,"longitude":-1.47986,"region":"Normandie","nombrePOI":8},{"nom":"Dreux","latitude":48.7314561,"longitude":1.3701604,"region":"Centre-Val de Loire","nombrePOI":8},{"nom":"Pont-à-Vendin","latitude":50.4713812,"longitude":2.8751938,"region":"Hauts-de-France","nombrePOI":8},{"nom":"Gagny","latitude":48.883125,"longitude":2.527106,"region":"Île-de-France","nombrePOI":8},{"nom":"Le Raincy - Villemomble - Montfermeil","latitude":48.889325,"longitude":2.512062,"region":"Île-de-France","nombrePOI":8},{"nom":"Elbeuf - Saint-Aubin","latitude":49.302766,"longitude":1.00993,"region":"Normandie","nombrePOI":8},{"nom":"Val-de-Vesle","latitude":49.17792,"longitude":4.22221,"region":"Grand Est","nombrePOI":8},{"nom":"Prunay","latitude":49.1988,"longitude":4.18364,"region":"Grand Est","nombrePOI":8},{"nom":"Orthez","latitude":43.484242,"longitude":-0.76776,"region":"Nouvelle-Aquitaine","nombrePOI":8},{"nom":"Toul","latitude":48.679018,"longitude":5.880615,"region":"Grand Est","nombrePOI":8},{"nom":"Fourmies","latitude":50.01541,"longitude":4.05357,"region":"Grand Est","nombrePOI":8},{"nom":"La Ferté-Milon","latitude":49.1797269,"longitude":3.1207223,"region":"Île-de-France","nombrePOI":8},{"nom":"Vierzon","latitude":47.226497,"longitude":2.059822,"region":"Centre-Val de Loire","nombrePOI":8},{"nom":"Porchefontaine","latitude":48.7969381,"longitude":2.1540156,"region":"Île-de-France","nombrePOI":8},{"nom":"Billy-Montigny","latitude":50.41556,"longitude":2.91206,"region":"Hauts-de-France","nombrePOI":8},{"nom":"Saint-Just-en-Chaussée","latitude":49.50364,"longitude":2.42949,"region":"Hauts-de-France","nombrePOI":8},{"nom":"Montargis","latitude":48.006862,"longitude":2.742783,"region":"Centre-Val de Loire","nombrePOI":8},{"nom":"Fors","latitude":46.2345203,"longitude":-0.4069449,"region":"Nouvelle-Aquitaine","nombrePOI":8},{"nom":"Sierentz","latitude":47.656047,"longitude":7.459142,"region":"Grand Est","nombrePOI":8},{"nom":"Audrieu","latitude":49.2161315,"longitude":-0.5960138,"region":"Normandie","nombrePOI":8},{"nom":"Bretteville - Norrey","latitude":49.2034112,"longitude":-0.5127396,"region":"Normandie","nombrePOI":8},{"nom":"Vif","latitude":45.0476532,"longitude":5.6854542,"region":"Auvergne-Rhône-Alpes","nombrePOI":8},{"nom":"Belloy - Saint-Martin","latitude":49.09807,"longitude":2.36135,"region":"Île-de-France","nombrePOI":8},{"nom":"Monestier-de-Clermont","latitude":44.911996,"longitude":5.6339702,"region":"Auvergne-Rhône-Alpes","nombrePOI":8},{"nom":"Virieu-le-Grand - Belley","latitude":45.8482817,"longitude":5.6536162,"region":"Auvergne-Rhône-Alpes","nombrePOI":8},{"nom":"Auchy-lès-Hesdin","latitude":50.3963631,"longitude":2.1022448,"region":"Hauts-de-France","nombrePOI":8},{"nom":"Tonnerre","latitude":47.85938,"longitude":3.97355,"region":"Grand Est","nombrePOI":8},{"nom":"Avoudrey","latitude":47.1298359,"longitude":6.434573,"region":"Bourgogne-Franche-Comté","nombrePOI":8},{"nom":"Nointel - Mours","latitude":49.1327,"longitude":2.28066,"region":"Île-de-France","nombrePOI":8},{"nom":"Nogent-le-Rotrou","latitude":48.3255926,"longitude":0.8103045,"region":"Pays de la Loire","nombrePOI":8},{"nom":"Pignans","latitude":43.298475,"longitude":6.2248459,"region":"Provence-Alpes-Côte d'Azur","nombrePOI":8},{"nom":"Maurs","latitude":44.7061543,"longitude":2.1995656,"region":"Auvergne-Rhône-Alpes","nombrePOI":8},{"nom":"Malesherbes","latitude":48.2934325,"longitude":2.4012177,"region":"Île-de-France","nombrePOI":7},{"nom":"Villeneuve-sur-Yonne","latitude":48.0850129,"longitude":3.2869251,"region":"Bourgogne-Franche-Comté","nombrePOI":7},{"nom":"Seurre","latitude":46.9964114,"longitude":5.1513121,"region":"Bourgogne-Franche-Comté","nombrePOI":7},{"nom":"Culoz","latitude":45.843264,"longitude":5.778784,"region":"Auvergne-Rhône-Alpes","nombrePOI":7},{"nom":"Saint-Laurent-du-Var","latitude":43.662451,"longitude":7.194413,"region":"Provence-Alpes-Côte d'Azur","nombrePOI":7},{"nom":"Nice Saint-Augustin","latitude":43.670728,"longitude":7.216199,"region":"Provence-Alpes-Côte d'Azur","nombrePOI":7},{"nom":"Longjumeau","latitude":48.7020364,"longitude":2.2943957,"region":"Île-de-France","nombrePOI":7},{"nom":"Jouy-en-Josas","latitude":48.7650042,"longitude":2.1635294,"region":"Île-de-France","nombrePOI":7},{"nom":"Vanves - Malakoff","latitude":48.8181959,"longitude":2.2920988,"region":"Île-de-France","nombrePOI":7},{"nom":"Maisons-Laffitte","latitude":48.9456394,"longitude":2.1443153,"region":"Île-de-France","nombrePOI":7},{"nom":"Dissay","latitude":46.703544,"longitude":0.4210161,"region":"Nouvelle-Aquitaine","nombrePOI":7},{"nom":"Poitiers","latitude":46.582275,"longitude":0.333241,"region":"Nouvelle-Aquitaine","nombrePOI":7},{"nom":"Bougival","latitude":48.8542135,"longitude":2.1323749,"region":"Île-de-France","nombrePOI":7},{"nom":"Lison","latitude":49.226834,"longitude":-1.050339,"region":"Normandie","nombrePOI":7},{"nom":"Die","latitude":44.7582549,"longitude":5.3632053,"region":"Auvergne-Rhône-Alpes","nombrePOI":7},{"nom":"Bandol","latitude":43.140344,"longitude":5.750118,"region":"Provence-Alpes-Côte d'Azur","nombrePOI":7},{"nom":"Ollioules - Sanary-sur-Mer","latitude":43.122586,"longitude":5.824979,"region":"Provence-Alpes-Côte d'Azur","nombrePOI":7},{"nom":"La Crau","latitude":43.1449352,"longitude":6.0687663,"region":"Provence-Alpes-Côte d'Azur","nombrePOI":7},{"nom":"Coutras","latitude":45.03661,"longitude":-0.13169,"region":"Occitanie","nombrePOI":7},{"nom":"Redon","latitude":47.652004,"longitude":-2.08777,"region":"Bretagne","nombrePOI":7},{"nom":"Brignoud","latitude":45.26245,"longitude":5.901472,"region":"Auvergne-Rhône-Alpes","nombrePOI":7},{"nom":"Gaillac","latitude":43.905969,"longitude":1.894855,"region":"Occitanie","nombrePOI":7},{"nom":"Lisle-sur-Tarn","latitude":43.85639,"longitude":1.80823,"region":"Occitanie","nombrePOI":7},{"nom":"Sept-Saulx","latitude":49.1511332,"longitude":4.2569742,"region":"Grand Est","nombrePOI":7},{"nom":"Marlieux - Châtillon","latitude":46.0638765,"longitude":5.0731097,"region":"Auvergne-Rhône-Alpes","nombrePOI":7},{"nom":"Puyoô","latitude":43.5245425,"longitude":-0.9108149,"region":"Nouvelle-Aquitaine","nombrePOI":7},{"nom":"Commercy","latitude":48.765749,"longitude":5.58861,"region":"Grand Est","nombrePOI":7},{"nom":"Dormans","latitude":49.0791611,"longitude":3.641709,"region":"Grand Est","nombrePOI":7},{"nom":"Meurchin","latitude":50.4970516,"longitude":2.8930903,"region":"Hauts-de-France","nombrePOI":7},{"nom":"Versailles Château Rive Gauche","latitude":48.8003635,"longitude":2.1288274,"region":"Île-de-France","nombrePOI":7},{"nom":"Nemours - Saint-Pierre","latitude":48.267884,"longitude":2.685754,"region":"Île-de-France","nombrePOI":7},{"nom":"Marigny","latitude":46.1990832,"longitude":-0.428404,"region":"Nouvelle-Aquitaine","nombrePOI":7},{"nom":"Bartenheim","latitude":47.6349313,"longitude":7.4872561,"region":"Grand Est","nombrePOI":7},{"nom":"Le Grand-Lemps","latitude":45.3966261,"longitude":5.4231117,"region":"Auvergne-Rhône-Alpes","nombrePOI":7},{"nom":"Châbons","latitude":45.4383566,"longitude":5.4281009,"region":"Auvergne-Rhône-Alpes","nombrePOI":7},{"nom":"Bourron-Marlotte - Grez","latitude":48.3326884,"longitude":2.6924552,"region":"Île-de-France","nombrePOI":7},{"nom":"Clelles - Mens","latitude":44.8272443,"longitude":5.6050622,"region":"Auvergne-Rhône-Alpes","nombrePOI":7},{"nom":"Mézidon-Canon","latitude":49.071,"longitude":-0.07496,"region":"Normandie","nombrePOI":7},{"nom":"Marssac-sur-Tarn","latitude":43.9151803,"longitude":2.026913,"region":"Occitanie","nombrePOI":7},{"nom":"Cros de Cagnes","latitude":43.660465,"longitude":7.167111,"region":"Provence-Alpes-Côte d'Azur","nombrePOI":7},{"nom":"Saint-André-de-Cubzac","latitude":44.991255,"longitude":-0.440479,"region":"Nouvelle-Aquitaine","nombrePOI":7},{"nom":"La Loupe","latitude":48.4737398,"longitude":1.0109416,"region":"Centre-Val de Loire","nombrePOI":7},{"nom":"Dieppe","latitude":49.921788,"longitude":1.081133,"region":"Non définie","nombrePOI":7},{"nom":"Étainhus - Saint-Romain","latitude":49.5612151,"longitude":0.3310234,"region":"Normandie","nombrePOI":7},{"nom":"Châtel-Censoir","latitude":47.5377695,"longitude":3.6350455,"region":"Grand Est","nombrePOI":7},{"nom":"Ham","latitude":49.73985,"longitude":3.07052,"region":"Hauts-de-France","nombrePOI":7},{"nom":"Pers","latitude":44.887025,"longitude":2.2403887,"region":"Auvergne-Rhône-Alpes","nombrePOI":7},{"nom":"Lacapelle-Viescamp","latitude":44.9202424,"longitude":2.2654689,"region":"Auvergne-Rhône-Alpes","nombrePOI":7},{"nom":"Ytrac","latitude":44.9106891,"longitude":2.3644474,"region":"Auvergne-Rhône-Alpes","nombrePOI":7},{"nom":"Saint-Omer-en-Chaussée","latitude":49.5306261,"longitude":1.9970829,"region":"Hauts-de-France","nombrePOI":7},{"nom":"Gonfaron","latitude":43.3171516,"longitude":6.2817644,"region":"Provence-Alpes-Côte d'Azur","nombrePOI":7},{"nom":"Azay-le-Rideau","latitude":47.2663383,"longitude":0.4475388,"region":"Pays de la Loire","nombrePOI":7},{"nom":"Bessancourt","latitude":49.03576,"longitude":2.21004,"region":"Île-de-France","nombrePOI":6},{"nom":"Le Péage-de-Roussillon","latitude":45.371797,"longitude":4.795402,"region":"Auvergne-Rhône-Alpes","nombrePOI":6},{"nom":"Cap-d'Ail","latitude":43.7205382,"longitude":7.3943362,"region":"Provence-Alpes-Côte d'Azur","nombrePOI":6},{"nom":"Neussargues","latitude":45.1253044,"longitude":2.9791866,"region":"Auvergne-Rhône-Alpes","nombrePOI":6},{"nom":"Gravigny Balizy","latitude":48.6851718,"longitude":2.317846,"region":"Île-de-France","nombrePOI":6},{"nom":"Chilly-Mazarin","latitude":48.7004413,"longitude":2.3081837,"region":"Île-de-France","nombrePOI":6},{"nom":"Champlan","latitude":48.70804,"longitude":2.28073,"region":"Île-de-France","nombrePOI":6},{"nom":"Saint-Vincent-de-Tyrosse","latitude":43.657736,"longitude":-1.306493,"region":"Nouvelle-Aquitaine","nombrePOI":6},{"nom":"Achères Grand Cormier","latitude":48.9551835,"longitude":2.0919031,"region":"Île-de-France","nombrePOI":6},{"nom":"Poissy","latitude":48.9329014,"longitude":2.0413676,"region":"Île-de-France","nombrePOI":6},{"nom":"Saint-Maurice-de-Beynost","latitude":45.827421,"longitude":4.976986,"region":"Auvergne-Rhône-Alpes","nombrePOI":6},{"nom":"Dourdan","latitude":48.533466,"longitude":2.009643,"region":"Île-de-France","nombrePOI":6},{"nom":"Grandvilliers","latitude":49.6593779,"longitude":1.9384836,"region":"Hauts-de-France","nombrePOI":6},{"nom":"Feuquières - Broquiers","latitude":49.6545751,"longitude":1.8305169,"region":"Hauts-de-France","nombrePOI":6},{"nom":"Meudon Val Fleury","latitude":48.8079884,"longitude":2.2409045,"region":"Île-de-France","nombrePOI":6},{"nom":"Issy Val de Seine","latitude":48.8295555,"longitude":2.2635936,"region":"Île-de-France","nombrePOI":6},{"nom":"Pont du Garigliano - Hôpital Européen Georges Pompidou","latitude":48.839464,"longitude":2.2712276,"region":"Île-de-France","nombrePOI":6},{"nom":"Javel","latitude":48.8462046,"longitude":2.2768401,"region":"Île-de-France","nombrePOI":6},{"nom":"Marolles-en-Hurepoix","latitude":48.565345,"longitude":2.290327,"region":"Île-de-France","nombrePOI":6},{"nom":"Bonneville","latitude":46.077772,"longitude":6.416524,"region":"Auvergne-Rhône-Alpes","nombrePOI":6},{"nom":"Boulainvilliers","latitude":48.85645,"longitude":2.275149,"region":"Île-de-France","nombrePOI":6},{"nom":"Avenue Foch","latitude":48.870971,"longitude":2.2756167,"region":"Île-de-France","nombrePOI":6},{"nom":"Neuilly - Porte Maillot","latitude":48.877983,"longitude":2.284516,"region":"Île-de-France","nombrePOI":6},{"nom":"Louveciennes","latitude":48.8610361,"longitude":2.1230176,"region":"Île-de-France","nombrePOI":6},{"nom":"Marly-le-Roi","latitude":48.8713084,"longitude":2.0965436,"region":"Île-de-France","nombrePOI":6},{"nom":"L'Étang-la-Ville","latitude":48.86822,"longitude":2.0766932,"region":"Île-de-France","nombrePOI":6},{"nom":"La Norville - Saint-Germain-lès-Arpajon","latitude":48.591617,"longitude":2.267586,"region":"Île-de-France","nombrePOI":6},{"nom":"Arpajon","latitude":48.58617,"longitude":2.24112,"region":"Île-de-France","nombrePOI":6},{"nom":"Sermaise","latitude":48.53536,"longitude":2.06865,"region":"Île-de-France","nombrePOI":6},{"nom":"Tullins Fures","latitude":45.300996,"longitude":5.492194,"region":"Auvergne-Rhône-Alpes","nombrePOI":6},{"nom":"Valmondois","latitude":49.09182,"longitude":2.20238,"region":"Île-de-France","nombrePOI":6},{"nom":"Faubourg d'Orléans","latitude":47.3669948,"longitude":1.7403794,"region":"Centre-Val de Loire","nombrePOI":6},{"nom":"Magland","latitude":46.016945,"longitude":6.6215075,"region":"Auvergne-Rhône-Alpes","nombrePOI":6},{"nom":"Montrond-les-Bains","latitude":45.644429,"longitude":4.248814,"region":"Auvergne-Rhône-Alpes","nombrePOI":6},{"nom":"Balbigny","latitude":45.817858,"longitude":4.187443,"region":"Auvergne-Rhône-Alpes","nombrePOI":6},{"nom":"Saint-Jodard","latitude":45.8857125,"longitude":4.125231,"region":"Auvergne-Rhône-Alpes","nombrePOI":6},{"nom":"Mionnay","latitude":45.8966784,"longitude":4.919752,"region":"Auvergne-Rhône-Alpes","nombrePOI":6},{"nom":"Amboise","latitude":47.42148,"longitude":0.981299,"region":"Centre-Val de Loire","nombrePOI":6},{"nom":"Onzain - Chaumont-sur-Loire","latitude":47.492,"longitude":1.18595,"region":"Centre-Val de Loire","nombrePOI":6},{"nom":"Blois - Chambord","latitude":47.585445,"longitude":1.323823,"region":"Centre-Val de Loire","nombrePOI":6},{"nom":"Lancey","latitude":45.2344784,"longitude":5.8809758,"region":"Auvergne-Rhône-Alpes","nombrePOI":6},{"nom":"Firminy","latitude":45.391625,"longitude":4.28643,"region":"Auvergne-Rhône-Alpes","nombrePOI":6},{"nom":"Entraigues-sur-la-Sorgue","latitude":44.0054278,"longitude":4.9226971,"region":"Provence-Alpes-Côte d'Azur","nombrePOI":6},{"nom":"Pavilly","latitude":49.563897,"longitude":0.950644,"region":"Normandie","nombrePOI":6},{"nom":"La Brillanne - Oraison","latitude":43.9247771,"longitude":5.8923199,"region":"Provence-Alpes-Côte d'Azur","nombrePOI":6},{"nom":"Villars-les-Dombes","latitude":46.004206,"longitude":5.028404,"region":"Auvergne-Rhône-Alpes","nombrePOI":6},{"nom":"Servas - Lent","latitude":46.1306663,"longitude":5.1681312,"region":"Auvergne-Rhône-Alpes","nombrePOI":6},{"nom":"Saint-Vincent le Château","latitude":45.1488794,"longitude":3.9186273,"region":"Auvergne-Rhône-Alpes","nombrePOI":6},{"nom":"Ranguin","latitude":43.5691636,"longitude":6.9693134,"region":"Provence-Alpes-Côte d'Azur","nombrePOI":6},{"nom":"Bagneaux-sur-Loing","latitude":48.2304802,"longitude":2.7033327,"region":"Île-de-France","nombrePOI":6},{"nom":"Ferrières - Fontenay","latitude":48.0964767,"longitude":2.7726332,"region":"Centre-Val de Loire","nombrePOI":6},{"nom":"Carmaux","latitude":44.048782,"longitude":2.152401,"region":"Occitanie","nombrePOI":6},{"nom":"Montigny-sur-Loing","latitude":48.33661,"longitude":2.738561,"region":"Île-de-France","nombrePOI":6},{"nom":"Vierzon Forges","latitude":47.2099931,"longitude":2.0994545,"region":"Centre-Val de Loire","nombrePOI":6},{"nom":"Hesdin","latitude":50.378286,"longitude":2.0351881,"region":"Hauts-de-France","nombrePOI":6},{"nom":"Beaurainville","latitude":50.422891,"longitude":1.895345,"region":"Hauts-de-France","nombrePOI":6},{"nom":"Lépin-le-Lac - La Bauche","latitude":45.541519,"longitude":5.7649834,"region":"Auvergne-Rhône-Alpes","nombrePOI":6},{"nom":"Estrées-Saint-Denis","latitude":49.4382161,"longitude":2.642402,"region":"Hauts-de-France","nombrePOI":6},{"nom":"Nogent-sur-Vernisson","latitude":47.8527938,"longitude":2.7375773,"region":"Centre-Val de Loire","nombrePOI":6},{"nom":"Chinon","latitude":47.163047,"longitude":0.251538,"region":"Pays de la Loire","nombrePOI":6},{"nom":"Laroche - Migennes","latitude":47.960998,"longitude":3.513191,"region":"Grand Est","nombrePOI":5},{"nom":"Cercy-la-Tour","latitude":46.8578816,"longitude":3.6452029,"region":"Bourgogne-Franche-Comté","nombrePOI":5},{"nom":"Nice","latitude":43.704556,"longitude":7.261904,"region":"Provence-Alpes-Côte d'Azur","nombrePOI":5},{"nom":"Nice Riquier","latitude":43.705554,"longitude":7.290175,"region":"Provence-Alpes-Côte d'Azur","nombrePOI":5},{"nom":"Villefranche-sur-Mer","latitude":43.707061,"longitude":7.314129,"region":"Provence-Alpes-Côte d'Azur","nombrePOI":5},{"nom":"Petit Vaux","latitude":48.675859,"longitude":2.3339755,"region":"Île-de-France","nombrePOI":5},{"nom":"Lamure-sur-Azergues","latitude":46.0610834,"longitude":4.4921137,"region":"Auvergne-Rhône-Alpes","nombrePOI":5},{"nom":"Chamelet","latitude":45.9816414,"longitude":4.5069346,"region":"Auvergne-Rhône-Alpes","nombrePOI":5},{"nom":"Achères Ville","latitude":48.97011,"longitude":2.07739,"region":"Île-de-France","nombrePOI":5},{"nom":"Le Puy-en-Velay","latitude":45.042866,"longitude":3.892421,"region":"Auvergne-Rhône-Alpes","nombrePOI":5},{"nom":"Savigny-sur-Orge","latitude":48.67614,"longitude":2.35173,"region":"Île-de-France","nombrePOI":5},{"nom":"Épinay-sur-Orge","latitude":48.66952,"longitude":2.33182,"region":"Île-de-France","nombrePOI":5},{"nom":"Sainte-Geneviève-des-Bois","latitude":48.653245,"longitude":2.313161,"region":"Île-de-France","nombrePOI":5},{"nom":"Saint-Michel-sur-Orge","latitude":48.635479,"longitude":2.306632,"region":"Île-de-France","nombrePOI":5},{"nom":"Andrésy","latitude":48.9747,"longitude":2.04928,"region":"Île-de-France","nombrePOI":5},{"nom":"Chasseneuil-du-Poitou","latitude":46.6517702,"longitude":0.3730275,"region":"Nouvelle-Aquitaine","nombrePOI":5},{"nom":"Courthézon","latitude":44.0899478,"longitude":4.8881802,"region":"Auvergne-Rhône-Alpes","nombrePOI":5},{"nom":"Saint-Nom-la-Bretèche Forêt de Marly","latitude":48.8677671,"longitude":2.0509372,"region":"Île-de-France","nombrePOI":5},{"nom":"Égly","latitude":48.582364,"longitude":2.222138,"region":"Île-de-France","nombrePOI":5},{"nom":"Poliénas","latitude":45.256006,"longitude":5.4735849,"region":"Auvergne-Rhône-Alpes","nombrePOI":5},{"nom":"Montsûrs","latitude":48.14149,"longitude":-0.5506416,"region":"Pays de la Loire","nombrePOI":5},{"nom":"Crest","latitude":44.7301546,"longitude":5.0160968,"region":"Auvergne-Rhône-Alpes","nombrePOI":5},{"nom":"La Garde","latitude":43.1187044,"longitude":6.0100767,"region":"Provence-Alpes-Côte d'Azur","nombrePOI":5},{"nom":"Cannes","latitude":43.553839,"longitude":7.019682,"region":"Provence-Alpes-Côte d'Azur","nombrePOI":5},{"nom":"La Rochelle","latitude":46.15269,"longitude":-1.145305,"region":"Nouvelle-Aquitaine","nombrePOI":5},{"nom":"Saint-Louis","latitude":47.5906094,"longitude":7.5559882,"region":"Grand Est","nombrePOI":5},{"nom":"Lexos","latitude":44.1423958,"longitude":1.8851014,"region":"Occitanie","nombrePOI":5},{"nom":"Nice Pont Michel","latitude":43.72175,"longitude":7.29144,"region":"Provence-Alpes-Côte d'Azur","nombrePOI":5},{"nom":"Chars","latitude":49.16268,"longitude":1.93671,"region":"Île-de-France","nombrePOI":5},{"nom":"Marchezais - Broué","latitude":48.7684736,"longitude":1.513444,"region":"Île-de-France","nombrePOI":5},{"nom":"Albertville","latitude":45.672977,"longitude":6.383167,"region":"Auvergne-Rhône-Alpes","nombrePOI":5},{"nom":"Le Bosquet","latitude":43.5515285,"longitude":6.9816599,"region":"Provence-Alpes-Côte d'Azur","nombrePOI":5},{"nom":"La Frayère","latitude":43.5581088,"longitude":6.9720902,"region":"Provence-Alpes-Côte d'Azur","nombrePOI":5},{"nom":"Hénin-Beaumont","latitude":50.41706,"longitude":2.95211,"region":"Hauts-de-France","nombrePOI":5},{"nom":"Souppes - Château-Landon","latitude":48.181907,"longitude":2.734971,"region":"Île-de-France","nombrePOI":5},{"nom":"Bantzenheim","latitude":47.8109675,"longitude":7.5038675,"region":"Grand Est","nombrePOI":5},{"nom":"Mignaloux - Nouaillé","latitude":46.5261427,"longitude":0.4117391,"region":"Nouvelle-Aquitaine","nombrePOI":5},{"nom":"Fontainebleau - Avon","latitude":48.416371,"longitude":2.72634,"region":"Île-de-France","nombrePOI":5},{"nom":"Moult - Argences","latitude":49.1111851,"longitude":-0.1864355,"region":"Normandie","nombrePOI":5},{"nom":"Foëcy","latitude":47.1756905,"longitude":2.1625062,"region":"Centre-Val de Loire","nombrePOI":5},{"nom":"Maroeuil","latitude":50.322603,"longitude":2.6983279,"region":"Hauts-de-France","nombrePOI":5},{"nom":"Aytré Plage","latitude":46.1273815,"longitude":-1.1280462,"region":"Nouvelle-Aquitaine","nombrePOI":5},{"nom":"Vincelles","latitude":47.7042304,"longitude":3.6284728,"region":"Grand Est","nombrePOI":5},{"nom":"Aurillac","latitude":44.921092,"longitude":2.435655,"region":"Auvergne-Rhône-Alpes","nombrePOI":5},{"nom":"Ligugé","latitude":46.5203091,"longitude":0.3331733,"region":"Nouvelle-Aquitaine","nombrePOI":5},{"nom":"Aubie - Saint-Antoine","latitude":45.0151419,"longitude":-0.4198843,"region":"Nouvelle-Aquitaine","nombrePOI":5},{"nom":"Langeac","latitude":45.10125,"longitude":3.490672,"region":"Auvergne-Rhône-Alpes","nombrePOI":5},{"nom":"Viry-Châtillon","latitude":48.676182,"longitude":2.386391,"region":"Île-de-France","nombrePOI":4},{"nom":"Mériel","latitude":49.07777,"longitude":2.20528,"region":"Île-de-France","nombrePOI":4},{"nom":"Méry-sur-Oise","latitude":49.05766,"longitude":2.19074,"region":"Île-de-France","nombrePOI":4},{"nom":"Frépillon","latitude":49.0462,"longitude":2.19717,"region":"Île-de-France","nombrePOI":4},{"nom":"Chemilly - Appoigny","latitude":47.8972366,"longitude":3.5543936,"region":"Grand Est","nombrePOI":4},{"nom":"Monéteau - Gurgy","latitude":47.8507856,"longitude":3.5798071,"region":"Grand Est","nombrePOI":4},{"nom":"Chaugey","latitude":47.0872036,"longitude":5.2551914,"region":"Bourgogne-Franche-Comté","nombrePOI":4},{"nom":"Beaulieu-sur-Mer","latitude":43.706651,"longitude":7.331545,"region":"Provence-Alpes-Côte d'Azur","nombrePOI":4},{"nom":"Èze","latitude":43.7221842,"longitude":7.3568031,"region":"Provence-Alpes-Côte d'Azur","nombrePOI":4},{"nom":"Vernon - Giverny","latitude":49.091336,"longitude":1.47857,"region":"Île-de-France","nombrePOI":4},{"nom":"Saint-Quentin en Yvelines - Montigny-le-Bretonneux","latitude":48.78657,"longitude":2.04523,"region":"Île-de-France","nombrePOI":4},{"nom":"Saubusse","latitude":43.6603331,"longitude":-1.1901703,"region":"Nouvelle-Aquitaine","nombrePOI":4},{"nom":"La Verpillière","latitude":45.6276,"longitude":5.150866,"region":"Auvergne-Rhône-Alpes","nombrePOI":4},{"nom":"Saint-Priest","latitude":45.686659,"longitude":4.934242,"region":"Auvergne-Rhône-Alpes","nombrePOI":4},{"nom":"Rive-de-Gier","latitude":45.524324,"longitude":4.606648,"region":"Auvergne-Rhône-Alpes","nombrePOI":4},{"nom":"Bouray","latitude":48.533149,"longitude":2.290596,"region":"Île-de-France","nombrePOI":4},{"nom":"Lardy","latitude":48.520639,"longitude":2.255739,"region":"Île-de-France","nombrePOI":4},{"nom":"Chanteloup-les-Vignes","latitude":48.97095,"longitude":2.02771,"region":"Île-de-France","nombrePOI":4},{"nom":"Chemin d'Antony","latitude":48.748143,"longitude":2.3126207,"region":"Île-de-France","nombrePOI":4},{"nom":"Orly Ville","latitude":48.741815,"longitude":2.40265,"region":"Île-de-France","nombrePOI":4},{"nom":"Breuillet - Bruyères-le-Châtel","latitude":48.577228,"longitude":2.191721,"region":"Île-de-France","nombrePOI":4},{"nom":"Breuillet Village","latitude":48.564776,"longitude":2.171207,"region":"Île-de-France","nombrePOI":4},{"nom":"Saint-Chéron","latitude":48.551188,"longitude":2.125597,"region":"Île-de-France","nombrePOI":4},{"nom":"L'Isle-Adam - Parmain","latitude":49.11482,"longitude":2.20976,"region":"Île-de-France","nombrePOI":4},{"nom":"Neau","latitude":48.1574807,"longitude":-0.4766725,"region":"Pays de la Loire","nombrePOI":4},{"nom":"Laval","latitude":48.076206,"longitude":-0.760907,"region":"Pays de la Loire","nombrePOI":4},{"nom":"Alençon","latitude":48.433884,"longitude":0.098531,"region":"Pays de la Loire","nombrePOI":4},{"nom":"Grisolles","latitude":43.8269619,"longitude":1.3023292,"region":"Occitanie","nombrePOI":4},{"nom":"Dieupentale","latitude":43.8654687,"longitude":1.2760011,"region":"Occitanie","nombrePOI":4},{"nom":"Montbartier","latitude":43.9241555,"longitude":1.264501,"region":"Occitanie","nombrePOI":4},{"nom":"Saint-Pierre-en-Faucigny","latitude":46.0593442,"longitude":6.3757533,"region":"Auvergne-Rhône-Alpes","nombrePOI":4},{"nom":"Ambérieu-en-Bugey","latitude":45.954008,"longitude":5.342388,"region":"Auvergne-Rhône-Alpes","nombrePOI":4},{"nom":"Mer","latitude":47.70586,"longitude":1.506373,"region":"Centre-Val de Loire","nombrePOI":4},{"nom":"Barentin","latitude":49.549123,"longitude":0.953517,"region":"Normandie","nombrePOI":4},{"nom":"Saint-Hilaire - Saint-Nazaire","latitude":45.0713405,"longitude":5.243851,"region":"Auvergne-Rhône-Alpes","nombrePOI":4},{"nom":"Bréauté - Beuzeville","latitude":49.603396,"longitude":0.417489,"region":"Normandie","nombrePOI":4},{"nom":"La Trinité Victor","latitude":43.7427854,"longitude":7.3114604,"region":"Provence-Alpes-Côte d'Azur","nombrePOI":4},{"nom":"Drap - Cantaron","latitude":43.7599599,"longitude":7.3168739,"region":"Provence-Alpes-Côte d'Azur","nombrePOI":4},{"nom":"La Jarrie","latitude":46.12045,"longitude":-1.02347,"region":"Nouvelle-Aquitaine","nombrePOI":4},{"nom":"Vitry-le-François","latitude":48.718142,"longitude":4.587581,"region":"Grand Est","nombrePOI":4},{"nom":"Châteauroux","latitude":46.809737,"longitude":1.699536,"region":"Centre-Val de Loire","nombrePOI":4},{"nom":"Brioude","latitude":45.3006493,"longitude":3.3786344,"region":"Auvergne-Rhône-Alpes","nombrePOI":4},{"nom":"Vesoul","latitude":47.6177734,"longitude":6.151926,"region":"Grand Est","nombrePOI":4},{"nom":"Grésy-sur-Isère","latitude":45.594432,"longitude":6.2588584,"region":"Auvergne-Rhône-Alpes","nombrePOI":4},{"nom":"Mandelieu-la-Napoule","latitude":43.523903,"longitude":6.941313,"region":"Provence-Alpes-Côte d'Azur","nombrePOI":4},{"nom":"Théoule-sur-Mer","latitude":43.5134929,"longitude":6.9367978,"region":"Provence-Alpes-Côte d'Azur","nombrePOI":4},{"nom":"Le Molay-Littry","latitude":49.2493263,"longitude":-0.8809741,"region":"Normandie","nombrePOI":4},{"nom":"Montaigu","latitude":46.983705,"longitude":-1.316236,"region":"Pays de la Loire","nombrePOI":4},{"nom":"Genlis","latitude":47.244579,"longitude":5.223406,"region":"Bourgogne-Franche-Comté","nombrePOI":4},{"nom":"Bois-le-Roi","latitude":48.475567,"longitude":2.691606,"region":"Île-de-France","nombrePOI":4},{"nom":"Jarnac","latitude":45.6711292,"longitude":-0.1777613,"region":"Nouvelle-Aquitaine","nombrePOI":4},{"nom":"Gap","latitude":44.563693,"longitude":6.085638,"region":"Auvergne-Rhône-Alpes","nombrePOI":4},{"nom":"Luc-en-Diois","latitude":44.6136615,"longitude":5.4546227,"region":"Auvergne-Rhône-Alpes","nombrePOI":4},{"nom":"Frévin-Capelle","latitude":50.3473177,"longitude":2.6338262,"region":"Hauts-de-France","nombrePOI":4},{"nom":"Angoulins sur Mer","latitude":46.108057,"longitude":-1.1154503,"region":"Nouvelle-Aquitaine","nombrePOI":4},{"nom":"Fougeray - Langon","latitude":47.7297956,"longitude":-1.8510921,"region":"Bretagne","nombrePOI":4},{"nom":"Issoudun","latitude":46.948763,"longitude":1.985834,"region":"Centre-Val de Loire","nombrePOI":4},{"nom":"Saint-Mariens - Saint-Yzan","latitude":45.139072,"longitude":-0.3917824,"region":"Nouvelle-Aquitaine","nombrePOI":4},{"nom":"Cormery","latitude":47.26254,"longitude":0.833953,"region":"Pays de la Loire","nombrePOI":4},{"nom":"Le Rouget","latitude":44.8565391,"longitude":2.2355043,"region":"Auvergne-Rhône-Alpes","nombrePOI":4},{"nom":"Aumale","latitude":49.7650371,"longitude":1.7560425,"region":"Hauts-de-France","nombrePOI":4},{"nom":"Amplepuis","latitude":45.970982,"longitude":4.326844,"region":"Auvergne-Rhône-Alpes","nombrePOI":4},{"nom":"Aiguebelle","latitude":45.5437225,"longitude":6.3067175,"region":"Auvergne-Rhône-Alpes","nombrePOI":4},{"nom":"Rivarennes","latitude":47.2677425,"longitude":0.3618999,"region":"Pays de la Loire","nombrePOI":4},{"nom":"La Ferté-Alais","latitude":48.484876,"longitude":2.35161,"region":"Île-de-France","nombrePOI":3},{"nom":"Ris-Orangis","latitude":48.659442,"longitude":2.41442,"region":"Île-de-France","nombrePOI":3},{"nom":"Aéroport Charles de Gaulle 2 TGV","latitude":49.003652,"longitude":2.570892,"region":"Île-de-France","nombrePOI":3},{"nom":"Villepinte","latitude":48.96292,"longitude":2.51205,"region":"Île-de-France","nombrePOI":3},{"nom":"Sevran Beaudottes","latitude":48.94743,"longitude":2.52474,"region":"Île-de-France","nombrePOI":3},{"nom":"Aulnay-sous-Bois","latitude":48.93179,"longitude":2.49431,"region":"Île-de-France","nombrePOI":3},{"nom":"Le Blanc-Mesnil","latitude":48.93248,"longitude":2.47747,"region":"Île-de-France","nombrePOI":3},{"nom":"Éragny - Neuville","latitude":49.01824,"longitude":2.09104,"region":"Île-de-France","nombrePOI":3},{"nom":"Conflans-Sainte-Honorine","latitude":48.99646,"longitude":2.09783,"region":"Île-de-France","nombrePOI":3},{"nom":"Herblay","latitude":48.99042,"longitude":2.16208,"region":"Île-de-France","nombrePOI":3},{"nom":"Sevran - Livry","latitude":48.93601,"longitude":2.53484,"region":"Île-de-France","nombrePOI":3},{"nom":"Saint-Quentin-Fallavier","latitude":45.638109,"longitude":5.099896,"region":"Auvergne-Rhône-Alpes","nombrePOI":3},{"nom":"Conflans Fin d'Oise","latitude":48.98931,"longitude":2.07465,"region":"Île-de-France","nombrePOI":3},{"nom":"Villennes-sur-Seine","latitude":48.9394602,"longitude":1.9993185,"region":"Île-de-France","nombrePOI":3},{"nom":"Abancourt","latitude":49.6852237,"longitude":1.7743058,"region":"Hauts-de-France","nombrePOI":3},{"nom":"Chamarande","latitude":48.514244,"longitude":2.215854,"region":"Île-de-France","nombrePOI":3},{"nom":"La Roche-sur-Foron","latitude":46.06756,"longitude":6.303885,"region":"Auvergne-Rhône-Alpes","nombrePOI":3},{"nom":"Maurecourt","latitude":48.98712,"longitude":2.05963,"region":"Île-de-France","nombrePOI":3},{"nom":"Valenciennes","latitude":50.363259,"longitude":3.517115,"region":"Hauts-de-France","nombrePOI":3},{"nom":"Les Saules","latitude":48.7454924,"longitude":2.417366,"region":"Île-de-France","nombrePOI":3},{"nom":"Pierrelaye","latitude":49.01955,"longitude":2.15371,"region":"Île-de-France","nombrePOI":3},{"nom":"Bédarrides","latitude":44.0407636,"longitude":4.8931321,"region":"Provence-Alpes-Côte d'Azur","nombrePOI":3},{"nom":"Grigny Centre","latitude":48.65343,"longitude":2.395797,"region":"Île-de-France","nombrePOI":3},{"nom":"Villeneuve-Saint-Georges","latitude":48.730113,"longitude":2.446011,"region":"Île-de-France","nombrePOI":3},{"nom":"Villeneuve Triage","latitude":48.745198,"longitude":2.438192,"region":"Île-de-France","nombrePOI":3},{"nom":"Santeuil - Le Perchay","latitude":49.12416,"longitude":1.94893,"region":"Île-de-France","nombrePOI":3},{"nom":"Saintes","latitude":45.74874,"longitude":-0.6179,"region":"Nouvelle-Aquitaine","nombrePOI":3},{"nom":"Montauban Ville Bourbon","latitude":44.014387,"longitude":1.341496,"region":"Occitanie","nombrePOI":3},{"nom":"Bazancourt","latitude":49.361202,"longitude":4.173887,"region":"Grand Est","nombrePOI":3},{"nom":"L'Isle-Jourdain","latitude":43.617185,"longitude":1.089829,"region":"Occitanie","nombrePOI":3},{"nom":"Toulon","latitude":43.12837,"longitude":5.929293,"region":"Provence-Alpes-Côte d'Azur","nombrePOI":3},{"nom":"Mérenvielle","latitude":43.6365051,"longitude":1.1503303,"region":"Occitanie","nombrePOI":3},{"nom":"Feurs","latitude":45.744156,"longitude":4.230573,"region":"Auvergne-Rhône-Alpes","nombrePOI":3},{"nom":"Le Coteau","latitude":46.023984,"longitude":4.086248,"region":"Auvergne-Rhône-Alpes","nombrePOI":3},{"nom":"Roanne","latitude":46.039383,"longitude":4.063207,"region":"Auvergne-Rhône-Alpes","nombrePOI":3},{"nom":"Évreux Normandie","latitude":49.018748,"longitude":1.149629,"region":"Normandie","nombrePOI":3},{"nom":"Busigny","latitude":50.0397236,"longitude":3.4461174,"region":"Grand Est","nombrePOI":3},{"nom":"Bauvin - Provin","latitude":50.51168,"longitude":2.9054,"region":"Hauts-de-France","nombrePOI":3},{"nom":"Le Chambon-Feugerolles","latitude":45.3947427,"longitude":4.3223823,"region":"Auvergne-Rhône-Alpes","nombrePOI":3},{"nom":"Carpentras","latitude":44.0499488,"longitude":5.044141,"region":"Provence-Alpes-Côte d'Azur","nombrePOI":3},{"nom":"Monteux","latitude":44.0374619,"longitude":4.9947813,"region":"Provence-Alpes-Côte d'Azur","nombrePOI":3},{"nom":"Pont-du-Château","latitude":45.7885543,"longitude":3.2377829,"region":"Auvergne-Rhône-Alpes","nombrePOI":3},{"nom":"Mourmelon-le-Petit","latitude":49.1313076,"longitude":4.3180982,"region":"Grand Est","nombrePOI":3},{"nom":"Épluches","latitude":49.0549329,"longitude":2.1225973,"region":"Île-de-France","nombrePOI":3},{"nom":"Fontenay-le-Fleury","latitude":48.8074032,"longitude":2.0404603,"region":"Île-de-France","nombrePOI":3},{"nom":"Le Poirier Université","latitude":50.33006,"longitude":3.50273,"region":"Hauts-de-France","nombrePOI":3},{"nom":"Nanteuil - Saâcy","latitude":48.9738082,"longitude":3.2200172,"region":"Île-de-France","nombrePOI":3},{"nom":"Albens","latitude":45.785946,"longitude":5.9483418,"region":"Auvergne-Rhône-Alpes","nombrePOI":3},{"nom":"Rumilly","latitude":45.862989,"longitude":5.947938,"region":"Auvergne-Rhône-Alpes","nombrePOI":3},{"nom":"Mareuil-sur-Ourcq","latitude":49.1355418,"longitude":3.075653,"region":"Île-de-France","nombrePOI":3},{"nom":"Frontenex","latitude":45.6305461,"longitude":6.3140556,"region":"Auvergne-Rhône-Alpes","nombrePOI":3},{"nom":"Villeneuve-le-Roi","latitude":48.739908,"longitude":2.426084,"region":"Île-de-France","nombrePOI":3},{"nom":"Fréjus","latitude":43.432032,"longitude":6.732941,"region":"Provence-Alpes-Côte d'Azur","nombrePOI":3},{"nom":"Dordives","latitude":48.1471796,"longitude":2.7628787,"region":"Île-de-France","nombrePOI":3},{"nom":"Wallers","latitude":50.384611,"longitude":3.3937454,"region":"Hauts-de-France","nombrePOI":3},{"nom":"Raismes","latitude":50.3902495,"longitude":3.4788322,"region":"Hauts-de-France","nombrePOI":3},{"nom":"Beuvrages","latitude":50.3894892,"longitude":3.5061396,"region":"Hauts-de-France","nombrePOI":3},{"nom":"Trith-Saint-Léger","latitude":50.3318146,"longitude":3.4893247,"region":"Hauts-de-France","nombrePOI":3},{"nom":"Prouvy - Thiant","latitude":50.3167933,"longitude":3.4610838,"region":"Hauts-de-France","nombrePOI":3},{"nom":"Thomery","latitude":48.394462,"longitude":2.763995,"region":"Île-de-France","nombrePOI":3},{"nom":"Dourges","latitude":50.43192,"longitude":2.98697,"region":"Hauts-de-France","nombrePOI":3},{"nom":"Aspres-sur-Buëch","latitude":44.519428,"longitude":5.7545655,"region":"Auvergne-Rhône-Alpes","nombrePOI":3},{"nom":"Montdidier","latitude":49.64147,"longitude":2.563,"region":"Hauts-de-France","nombrePOI":3},{"nom":"Les Versannes","latitude":45.088775,"longitude":0.8574682,"region":"Nouvelle-Aquitaine","nombrePOI":3},{"nom":"Lusignan","latitude":46.4354949,"longitude":0.116555,"region":"Nouvelle-Aquitaine","nombrePOI":3},{"nom":"Fresnoy-le-Grand","latitude":49.9501964,"longitude":3.43268,"region":"Grand Est","nombrePOI":3},{"nom":"Mézériat","latitude":46.2350502,"longitude":5.046622,"region":"Bourgogne-Franche-Comté","nombrePOI":3},{"nom":"Reuilly","latitude":47.0853677,"longitude":2.0474783,"region":"Centre-Val de Loire","nombrePOI":3},{"nom":"Nouan-le-Fuzelier","latitude":47.5337788,"longitude":2.0330957,"region":"Centre-Val de Loire","nombrePOI":3},{"nom":"Labruguière","latitude":43.5425692,"longitude":2.2594728,"region":"Occitanie","nombrePOI":3},{"nom":"Mazamet","latitude":43.4977847,"longitude":2.3747346,"region":"Occitanie","nombrePOI":3},{"nom":"Serres","latitude":44.4246573,"longitude":5.7184201,"region":"Auvergne-Rhône-Alpes","nombrePOI":3},{"nom":"Manosque - Gréoux-les-Bains","latitude":43.8231945,"longitude":5.7933241,"region":"Provence-Alpes-Côte d'Azur","nombrePOI":3},{"nom":"Montville","latitude":49.551284,"longitude":1.070046,"region":"Normandie","nombrePOI":3},{"nom":"Mailly-la-Ville","latitude":47.6041692,"longitude":3.6751472,"region":"Grand Est","nombrePOI":3},{"nom":"Gauriaguet","latitude":45.0542936,"longitude":-0.3992689,"region":"Nouvelle-Aquitaine","nombrePOI":3},{"nom":"Cavignac","latitude":45.105163,"longitude":-0.382243,"region":"Nouvelle-Aquitaine","nombrePOI":3},{"nom":"Vulaines-sur-Seine - Samoreau","latitude":48.4305468,"longitude":2.7531008,"region":"Île-de-France","nombrePOI":3},{"nom":"Chartrettes","latitude":48.4870771,"longitude":2.6950059,"region":"Île-de-France","nombrePOI":3},{"nom":"Boigneville","latitude":48.342078,"longitude":2.3789793,"region":"Île-de-France","nombrePOI":2},{"nom":"Buno - Gironville","latitude":48.370847,"longitude":2.3871153,"region":"Île-de-France","nombrePOI":2},{"nom":"Sens","latitude":48.197856,"longitude":3.267833,"region":"Île-de-France","nombrePOI":2},{"nom":"Étréchy","latitude":48.493727,"longitude":2.194323,"region":"Île-de-France","nombrePOI":2},{"nom":"Romilly-sur-Seine","latitude":48.514433,"longitude":3.728887,"region":"Grand Est","nombrePOI":2},{"nom":"Massiac - Blesle","latitude":45.2537695,"longitude":3.1965518,"region":"Auvergne-Rhône-Alpes","nombrePOI":2},{"nom":"Arvant","latitude":45.3653797,"longitude":3.3106747,"region":"Auvergne-Rhône-Alpes","nombrePOI":2},{"nom":"Brassac-les-Mines - Sainte-Florine","latitude":45.414246,"longitude":3.330167,"region":"Auvergne-Rhône-Alpes","nombrePOI":2},{"nom":"Vendôme","latitude":47.8021498,"longitude":1.0678728,"region":"Centre-Val de Loire","nombrePOI":2},{"nom":"Vert Galant","latitude":48.94467,"longitude":2.5667,"region":"Île-de-France","nombrePOI":2},{"nom":"Villeparisis - Mitry-le-Neuf","latitude":48.95325,"longitude":2.60243,"region":"Île-de-France","nombrePOI":2},{"nom":"Mitry - Claye","latitude":48.97569,"longitude":2.64247,"region":"Île-de-France","nombrePOI":2},{"nom":"Varilhes","latitude":43.0415593,"longitude":1.6284818,"region":"Occitanie","nombrePOI":2},{"nom":"Cergy Préfecture","latitude":49.03639,"longitude":2.07982,"region":"Île-de-France","nombrePOI":2},{"nom":"Beynost","latitude":45.833915,"longitude":5.006969,"region":"Auvergne-Rhône-Alpes","nombrePOI":2},{"nom":"Auneau","latitude":48.4458242,"longitude":1.77998,"region":"Île-de-France","nombrePOI":2},{"nom":"Les Mureaux","latitude":48.9927897,"longitude":1.9129871,"region":"Île-de-France","nombrePOI":2},{"nom":"Orange","latitude":44.137304,"longitude":4.819594,"region":"Auvergne-Rhône-Alpes","nombrePOI":2},{"nom":"Les Yvris Noisy-le-Grand","latitude":48.823182,"longitude":2.579828,"region":"Île-de-France","nombrePOI":2},{"nom":"Saint-Ouen-l'Aumône","latitude":49.04527,"longitude":2.10651,"region":"Île-de-France","nombrePOI":2},{"nom":"Vigneux-sur-Seine","latitude":48.70816,"longitude":2.41446,"region":"Île-de-France","nombrePOI":2},{"nom":"Vinay","latitude":45.20797,"longitude":5.41005,"region":"Auvergne-Rhône-Alpes","nombrePOI":2},{"nom":"Armentières","latitude":50.68084,"longitude":2.87763,"region":"Hauts-de-France","nombrePOI":2},{"nom":"Bailleul","latitude":50.72916,"longitude":2.73445,"region":"Hauts-de-France","nombrePOI":2},{"nom":"Rethel","latitude":49.504393,"longitude":4.369566,"region":"Grand Est","nombrePOI":2},{"nom":"Morcenx","latitude":44.033565,"longitude":-0.90864,"region":"Nouvelle-Aquitaine","nombrePOI":2},{"nom":"Toulon Sainte-Musse","latitude":43.125113642636705,"longitude":5.972755104236321,"region":"Provence-Alpes-Côte d'Azur","nombrePOI":2},{"nom":"Castelnau-d'Estrétefonds","latitude":43.786196,"longitude":1.341761,"region":"Occitanie","nombrePOI":2},{"nom":"Bernay","latitude":49.087102,"longitude":0.595634,"region":"Normandie","nombrePOI":2},{"nom":"Nonancourt","latitude":48.7757257,"longitude":1.1929162,"region":"Centre-Val de Loire","nombrePOI":2},{"nom":"L'Aigle","latitude":48.766229,"longitude":0.620014,"region":"Centre-Val de Loire","nombrePOI":2},{"nom":"Étain","latitude":49.2074907,"longitude":5.6398079,"region":"Grand Est","nombrePOI":2},{"nom":"Conflans - Jarny","latitude":49.1662895,"longitude":5.8681853,"region":"Grand Est","nombrePOI":2},{"nom":"Les Cauquillous","latitude":43.7340198,"longitude":1.7546798,"region":"Occitanie","nombrePOI":2},{"nom":"Lezoux","latitude":45.8212175,"longitude":3.385986,"region":"Auvergne-Rhône-Alpes","nombrePOI":2},{"nom":"Selles-Saint-Denis","latitude":47.3883857,"longitude":1.9222038,"region":"Centre-Val de Loire","nombrePOI":2},{"nom":"Moissac","latitude":44.1024178,"longitude":1.077345,"region":"Occitanie","nombrePOI":2},{"nom":"Vosves","latitude":48.5151115,"longitude":2.5991469,"region":"Île-de-France","nombrePOI":2},{"nom":"Boissise-le-Roi","latitude":48.529319,"longitude":2.572953,"region":"Île-de-France","nombrePOI":2},{"nom":"Paulhaguet","latitude":45.2101978,"longitude":3.5004445,"region":"Auvergne-Rhône-Alpes","nombrePOI":2},{"nom":"Mehun-sur-Yèvre","latitude":47.1394406,"longitude":2.2071342,"region":"Centre-Val de Loire","nombrePOI":2},{"nom":"Athis-Mons","latitude":48.712557,"longitude":2.403749,"region":"Île-de-France","nombrePOI":2},{"nom":"Neuvy-Pailloux","latitude":46.883564,"longitude":1.8642473,"region":"Centre-Val de Loire","nombrePOI":2},{"nom":"Lézignan-Corbières","latitude":43.1999609,"longitude":2.7699635,"region":"Occitanie","nombrePOI":2},{"nom":"Briançon","latitude":44.889853,"longitude":6.633007,"region":"Auvergne-Rhône-Alpes","nombrePOI":2},{"nom":"Denain","latitude":50.3345415,"longitude":3.388699,"region":"Hauts-de-France","nombrePOI":2},{"nom":"Nieppe","latitude":50.6966975,"longitude":2.8289655,"region":"Hauts-de-France","nombrePOI":2},{"nom":"Steenwerck","latitude":50.713459,"longitude":2.7855769,"region":"Hauts-de-France","nombrePOI":2},{"nom":"Moret - Veneux-les-Sablons","latitude":48.37838,"longitude":2.79941,"region":"Île-de-France","nombrePOI":2},{"nom":"Lus-la-Croix-Haute","latitude":44.6709898,"longitude":5.6973678,"region":"Auvergne-Rhône-Alpes","nombrePOI":2},{"nom":"Ostricourt","latitude":50.44542,"longitude":3.03244,"region":"Hauts-de-France","nombrePOI":2},{"nom":"Tessonnières","latitude":43.9284209,"longitude":1.9369531,"region":"Occitanie","nombrePOI":2},{"nom":"Saint-Mammès","latitude":48.382171,"longitude":2.81593,"region":"Île-de-France","nombrePOI":2},{"nom":"Corbehem","latitude":50.3428545,"longitude":3.0405375,"region":"Hauts-de-France","nombrePOI":2},{"nom":"Chorges","latitude":44.5458415,"longitude":6.2718887,"region":"Auvergne-Rhône-Alpes","nombrePOI":2},{"nom":"Mont-Dauphin - Guillestre","latitude":44.6746283,"longitude":6.6156027,"region":"Auvergne-Rhône-Alpes","nombrePOI":2},{"nom":"Serquigny","latitude":49.1074117,"longitude":0.7189895,"region":"Normandie","nombrePOI":2},{"nom":"Brionne","latitude":49.1964187,"longitude":0.7115304,"region":"Normandie","nombrePOI":2},{"nom":"Bourgtheroulde - Thuit-Hébert","latitude":49.3174381,"longitude":0.8383198,"region":"Normandie","nombrePOI":2},{"nom":"Aubigny-en-Artois","latitude":50.35297,"longitude":2.5928045,"region":"Hauts-de-France","nombrePOI":2},{"nom":"Anvin","latitude":50.446845,"longitude":2.25494,"region":"Hauts-de-France","nombrePOI":2},{"nom":"Bueil","latitude":48.9253816,"longitude":1.4435896,"region":"Hauts-de-France","nombrePOI":2},{"nom":"Arcy-sur-Cure","latitude":47.6008461,"longitude":3.7668885,"region":"Grand Est","nombrePOI":2},{"nom":"Vermenton","latitude":47.6605943,"longitude":3.7320212,"region":"Grand Est","nombrePOI":2},{"nom":"Cravant - Bazarnes","latitude":47.6785079,"longitude":3.6811741,"region":"Grand Est","nombrePOI":2},{"nom":"Château-Arnoux-Saint-Auban","latitude":44.0615651,"longitude":5.9973734,"region":"Auvergne-Rhône-Alpes","nombrePOI":2},{"nom":"Saint-Florentin - Vergigny","latitude":47.981058,"longitude":3.731036,"region":"Grand Est","nombrePOI":2},{"nom":"Solliès-Pont","latitude":43.1907805,"longitude":6.0464158,"region":"Provence-Alpes-Côte d'Azur","nombrePOI":2},{"nom":"Courville-sur-Eure","latitude":48.451236,"longitude":1.234836,"region":"Centre-Val de Loire","nombrePOI":2},{"nom":"Clères","latitude":49.598964,"longitude":1.106184,"region":"Normandie","nombrePOI":2},{"nom":"Martigné-Ferchaud","latitude":47.8321302,"longitude":-1.3137943,"region":"Bretagne","nombrePOI":2},{"nom":"Vivonne","latitude":46.4266355,"longitude":0.2653156,"region":"Nouvelle-Aquitaine","nombrePOI":2},{"nom":"Leforest","latitude":50.4278,"longitude":3.05977,"region":"Hauts-de-France","nombrePOI":2},{"nom":"Pont de la Deûle","latitude":50.39813,"longitude":3.08503,"region":"Hauts-de-France","nombrePOI":2},{"nom":"Champagne-sur-Seine","latitude":48.406531,"longitude":2.799184,"region":"Île-de-France","nombrePOI":2},{"nom":"Héricy","latitude":48.4424848,"longitude":2.7605339,"region":"Île-de-France","nombrePOI":2},{"nom":"Livry-sur-Seine","latitude":48.5104579,"longitude":2.6788796,"region":"Île-de-France","nombrePOI":2},{"nom":"Salles-Courbatiès","latitude":44.4751593,"longitude":2.0787662,"region":"Occitanie","nombrePOI":2},{"nom":"Cantin","latitude":50.3124545,"longitude":3.121943,"region":"Hauts-de-France","nombrePOI":2},{"nom":"Sin-le-Noble","latitude":50.356612,"longitude":3.112777,"region":"Hauts-de-France","nombrePOI":2},{"nom":"Tarare","latitude":45.889921,"longitude":4.439208,"region":"Auvergne-Rhône-Alpes","nombrePOI":2},{"nom":"Mennecy","latitude":48.5709075,"longitude":2.433165,"region":"Île-de-France","nombrePOI":1},{"nom":"Corbeil-Essonnes","latitude":48.61403,"longitude":2.47401,"region":"Île-de-France","nombrePOI":1},{"nom":"Grand Bourg","latitude":48.648004,"longitude":2.435939,"region":"Île-de-France","nombrePOI":1},{"nom":"Lille Europe","latitude":50.639224,"longitude":3.075796,"region":"Hauts-de-France","nombrePOI":1},{"nom":"Montereau","latitude":48.379934,"longitude":2.942972,"region":"Île-de-France","nombrePOI":1},{"nom":"Pont-sur-Yonne","latitude":48.286287,"longitude":3.201463,"region":"Île-de-France","nombrePOI":1},{"nom":"Saint-Clair - Les Roches","latitude":45.450392,"longitude":4.769707,"region":"Auvergne-Rhône-Alpes","nombrePOI":1},{"nom":"Vienne","latitude":45.521207,"longitude":4.874211,"region":"Auvergne-Rhône-Alpes","nombrePOI":1},{"nom":"Lille Flandres","latitude":50.636577,"longitude":3.06987,"region":"Hauts-de-France","nombrePOI":1},{"nom":"Boissy-l'Aillerie","latitude":49.07598,"longitude":2.02513,"region":"Île-de-France","nombrePOI":1},{"nom":"Osny","latitude":49.06283,"longitude":2.05771,"region":"Île-de-France","nombrePOI":1},{"nom":"Pontoise","latitude":49.04709,"longitude":2.09545,"region":"Île-de-France","nombrePOI":1},{"nom":"Mantes-la-Jolie","latitude":48.98984,"longitude":1.70337,"region":"Île-de-France","nombrePOI":1},{"nom":"Montigny-en-Ostrevent","latitude":50.36151,"longitude":3.18829,"region":"Hauts-de-France","nombrePOI":1},{"nom":"Douai","latitude":50.371677,"longitude":3.089986,"region":"Hauts-de-France","nombrePOI":1},{"nom":"Melun","latitude":48.527662,"longitude":2.655404,"region":"Île-de-France","nombrePOI":1},{"nom":"Pamiers","latitude":43.116207,"longitude":1.619451,"region":"Occitanie","nombrePOI":1},{"nom":"Le Vernet d'Ariège","latitude":43.1894138,"longitude":1.6116214,"region":"Occitanie","nombrePOI":1},{"nom":"Cergy Saint-Christophe","latitude":49.0496151,"longitude":2.0343975,"region":"Île-de-France","nombrePOI":1},{"nom":"Cergy le Haut","latitude":49.0484932,"longitude":2.0118725,"region":"Île-de-France","nombrePOI":1},{"nom":"Villabé","latitude":48.592637,"longitude":2.461572,"region":"Île-de-France","nombrePOI":1},{"nom":"Essonnes Robinson","latitude":48.606095,"longitude":2.463701,"region":"Île-de-France","nombrePOI":1},{"nom":"La Valbonne","latitude":45.849225,"longitude":5.124911,"region":"Auvergne-Rhône-Alpes","nombrePOI":1},{"nom":"Montluel","latitude":45.84777,"longitude":5.057503,"region":"Auvergne-Rhône-Alpes","nombrePOI":1},{"nom":"Mantes Station","latitude":48.98366,"longitude":1.71581,"region":"Île-de-France","nombrePOI":1},{"nom":"Épône - Mézières","latitude":48.9631225,"longitude":1.8085932,"region":"Île-de-France","nombrePOI":1},{"nom":"Aubergenville Élisabethville","latitude":48.971825,"longitude":1.8484987,"region":"Île-de-France","nombrePOI":1},{"nom":"Les Clairières de Verneuil","latitude":48.9922407,"longitude":1.955265,"region":"Île-de-France","nombrePOI":1},{"nom":"Vernouillet - Verneuil","latitude":48.9811884,"longitude":1.9828731,"region":"Île-de-France","nombrePOI":1},{"nom":"Roissy-en-Brie","latitude":48.795481,"longitude":2.650165,"region":"Île-de-France","nombrePOI":1},{"nom":"Émerainville - Pontault-Combault","latitude":48.806034,"longitude":2.618004,"region":"Île-de-France","nombrePOI":1},{"nom":"Limay","latitude":48.9841,"longitude":1.74731,"region":"Île-de-France","nombrePOI":1},{"nom":"Issou - Porcheville","latitude":48.97931,"longitude":1.78532,"region":"Île-de-France","nombrePOI":1},{"nom":"Gargenville","latitude":48.98318,"longitude":1.8089,"region":"Île-de-France","nombrePOI":1},{"nom":"Juziers","latitude":48.99244,"longitude":1.84579,"region":"Île-de-France","nombrePOI":1},{"nom":"Meulan - Hardricourt","latitude":49.00564,"longitude":1.90213,"region":"Île-de-France","nombrePOI":1},{"nom":"Thun le Paradis","latitude":49.00687,"longitude":1.91922,"region":"Île-de-France","nombrePOI":1},{"nom":"Vaux-sur-Seine","latitude":49.00699,"longitude":1.96342,"region":"Île-de-France","nombrePOI":1},{"nom":"Triel-sur-Seine","latitude":48.98099,"longitude":2.00577,"region":"Île-de-France","nombrePOI":1},{"nom":"Le Bras de Fer","latitude":48.623287,"longitude":2.450625,"region":"Île-de-France","nombrePOI":1},{"nom":"Montgeroult - Courcelles","latitude":49.0805828,"longitude":2.0034959,"region":"Île-de-France","nombrePOI":1},{"nom":"Saint-Marcellin","latitude":45.150898,"longitude":5.323649,"region":"Auvergne-Rhône-Alpes","nombrePOI":1},{"nom":"Auvers-sur-Oise","latitude":49.07062,"longitude":2.17526,"region":"Île-de-France","nombrePOI":1},{"nom":"Amagne - Lucquy","latitude":49.5238187,"longitude":4.4738775,"region":"Grand Est","nombrePOI":1},{"nom":"Lavaur","latitude":43.703479,"longitude":1.813146,"region":"Occitanie","nombrePOI":1},{"nom":"Vielmur-sur-Agout","latitude":43.623928,"longitude":2.0895781,"region":"Occitanie","nombrePOI":1},{"nom":"Castres","latitude":43.599131,"longitude":2.231223,"region":"Occitanie","nombrePOI":1},{"nom":"Santes","latitude":50.5920123,"longitude":2.961977,"region":"Hauts-de-France","nombrePOI":1},{"nom":"Haubourdin","latitude":50.6070495,"longitude":2.990153,"region":"Hauts-de-France","nombrePOI":1},{"nom":"Loos lez Lille","latitude":50.6128165,"longitude":3.0170581,"region":"Hauts-de-France","nombrePOI":1},{"nom":"Lille Porte de Douai","latitude":50.6119054,"longitude":3.075837,"region":"Hauts-de-France","nombrePOI":1},{"nom":"Don - Sainghin","latitude":50.55176,"longitude":2.91458,"region":"Hauts-de-France","nombrePOI":1},{"nom":"Lesquin","latitude":50.59068,"longitude":3.11771,"region":"Hauts-de-France","nombrePOI":1},{"nom":"La Ricamarie","latitude":45.4041516,"longitude":4.360686,"region":"Auvergne-Rhône-Alpes","nombrePOI":1},{"nom":"Saint-Jean-de-Verges","latitude":43.0128587,"longitude":1.608059,"region":"Occitanie","nombrePOI":1},{"nom":"Foix","latitude":42.969746,"longitude":1.607147,"region":"Occitanie","nombrePOI":1},{"nom":"Thiers","latitude":45.8610502,"longitude":3.5431798,"region":"Auvergne-Rhône-Alpes","nombrePOI":1},{"nom":"Pont de Dore","latitude":45.8427833,"longitude":3.4903254,"region":"Auvergne-Rhône-Alpes","nombrePOI":1},{"nom":"Vertaizon","latitude":45.784543,"longitude":3.288269,"region":"Auvergne-Rhône-Alpes","nombrePOI":1},{"nom":"Villers-Bretonneux","latitude":49.86295,"longitude":2.52141,"region":"Hauts-de-France","nombrePOI":1},{"nom":"Cordes - Vindrac","latitude":44.067189,"longitude":1.900229,"region":"Occitanie","nombrePOI":1},{"nom":"Ascq","latitude":50.6218591,"longitude":3.1598992,"region":"Hauts-de-France","nombrePOI":1},{"nom":"Saint-Paul-de-Varax","latitude":46.1000331,"longitude":5.1282046,"region":"Auvergne-Rhône-Alpes","nombrePOI":1},{"nom":"Lyon Saint-Exupéry TGV","latitude":45.721109,"longitude":5.074969,"region":"Auvergne-Rhône-Alpes","nombrePOI":1},{"nom":"Chaponval","latitude":49.0694825,"longitude":2.1423781,"region":"Île-de-France","nombrePOI":1},{"nom":"Pont Petit","latitude":49.06004,"longitude":2.13046,"region":"Île-de-France","nombrePOI":1},{"nom":"Bergues","latitude":50.96901,"longitude":2.42574,"region":"Hauts-de-France","nombrePOI":1},{"nom":"Dunkerque","latitude":51.03047,"longitude":2.368961,"region":"Hauts-de-France","nombrePOI":1},{"nom":"Bar-le-Duc","latitude":48.773308,"longitude":5.166822,"region":"Grand Est","nombrePOI":1},{"nom":"Roubaix","latitude":50.69561,"longitude":3.16348,"region":"Hauts-de-France","nombrePOI":1},{"nom":"Villepreux - Les Clayes","latitude":48.8239168,"longitude":1.9930652,"region":"Île-de-France","nombrePOI":1},{"nom":"Salbris","latitude":47.42522,"longitude":2.04778,"region":"Centre-Val de Loire","nombrePOI":1},{"nom":"Carnoules","latitude":43.2974104,"longitude":6.1862531,"region":"Provence-Alpes-Côte d'Azur","nombrePOI":1},{"nom":"Castelsarrasin","latitude":44.0403503,"longitude":1.1143954,"region":"Occitanie","nombrePOI":1},{"nom":"Esbly","latitude":48.90314191,"longitude":2.81059946,"region":"Île-de-France","nombrePOI":1},{"nom":"Lagny - Thorigny","latitude":48.88218325,"longitude":2.70404228,"region":"Île-de-France","nombrePOI":1},{"nom":"Vaires - Torcy","latitude":48.874953,"longitude":2.639986,"region":"Île-de-France","nombrePOI":1},{"nom":"Chelles - Gournay","latitude":48.874128,"longitude":2.582484,"region":"Île-de-France","nombrePOI":1},{"nom":"Ponthierry - Pringy","latitude":48.534933,"longitude":2.54459,"region":"Île-de-France","nombrePOI":1},{"nom":"Lamotte-Beuvron","latitude":47.593898,"longitude":2.022499,"region":"Centre-Val de Loire","nombrePOI":1},{"nom":"Crouy-sur-Ourcq","latitude":49.091821,"longitude":3.063081,"region":"Île-de-France","nombrePOI":1},{"nom":"Bourges","latitude":47.094145,"longitude":2.394255,"region":"Centre-Val de Loire","nombrePOI":1},{"nom":"Agay","latitude":43.4313701,"longitude":6.8564997,"region":"Provence-Alpes-Côte d'Azur","nombrePOI":1},{"nom":"Le Dramont","latitude":43.4178193,"longitude":6.8442467,"region":"Provence-Alpes-Côte d'Azur","nombrePOI":1},{"nom":"Boulouris sur Mer","latitude":43.4163471,"longitude":6.8082519,"region":"Provence-Alpes-Côte d'Azur","nombrePOI":1},{"nom":"Ailly-sur-Noye","latitude":49.75448,"longitude":2.36419,"region":"Hauts-de-France","nombrePOI":1},{"nom":"L'Herbergement - Les Brouzils","latitude":46.9069172,"longitude":-1.3712431,"region":"Pays de la Loire","nombrePOI":1},{"nom":"Marcheprime","latitude":44.690543,"longitude":-0.85381,"region":"Nouvelle-Aquitaine","nombrePOI":1},{"nom":"La Madeleine","latitude":50.6608037,"longitude":3.0725804,"region":"Hauts-de-France","nombrePOI":1},{"nom":"Pérenchies","latitude":50.66697,"longitude":2.97729,"region":"Hauts-de-France","nombrePOI":1},{"nom":"Seclin","latitude":50.5486319,"longitude":3.0350084,"region":"Hauts-de-France","nombrePOI":1},{"nom":"Libercourt","latitude":50.48025,"longitude":3.00867,"region":"Hauts-de-France","nombrePOI":1},{"nom":"La Grande-Paroisse","latitude":48.3787751,"longitude":2.8971614,"region":"Île-de-France","nombrePOI":1},{"nom":"Moreuil","latitude":49.77699,"longitude":2.47582,"region":"Hauts-de-France","nombrePOI":1},{"nom":"Ax-les-Thermes","latitude":42.7247967,"longitude":1.8332516,"region":"Occitanie","nombrePOI":1},{"nom":"Noyelles-sur-Mer","latitude":50.1875408,"longitude":1.7045772,"region":"Hauts-de-France","nombrePOI":1},{"nom":"Rue","latitude":50.27308,"longitude":1.6757,"region":"Hauts-de-France","nombrePOI":1},{"nom":"Vitry-en-Artois","latitude":50.3276092,"longitude":2.9820833,"region":"Hauts-de-France","nombrePOI":1},{"nom":"Savy-Berlette","latitude":50.3538756,"longitude":2.5577316,"region":"Hauts-de-France","nombrePOI":1},{"nom":"Mareil-sur-Mauldre","latitude":48.8936804,"longitude":1.8715159,"region":"Île-de-France","nombrePOI":1},{"nom":"Maule","latitude":48.90917,"longitude":1.85708,"region":"Île-de-France","nombrePOI":1},{"nom":"Nézel - Aulnay","latitude":48.9387638,"longitude":1.8405298,"region":"Île-de-France","nombrePOI":1},{"nom":"Meximieux - Pérouges","latitude":45.901615,"longitude":5.193534,"region":"Auvergne-Rhône-Alpes","nombrePOI":1},{"nom":"Vonnas","latitude":46.2272852,"longitude":4.9916677,"region":"Bourgogne-Franche-Comté","nombrePOI":1},{"nom":"Theillay","latitude":47.3139904,"longitude":2.0443867,"region":"Centre-Val de Loire","nombrePOI":1},{"nom":"Albert","latitude":50.00546,"longitude":2.64453,"region":"Hauts-de-France","nombrePOI":1},{"nom":"Tarascon-sur-Ariège","latitude":42.8495385,"longitude":1.5999321,"region":"Occitanie","nombrePOI":1},{"nom":"Les Cabannes","latitude":42.7862854,"longitude":1.6862985,"region":"Occitanie","nombrePOI":1},{"nom":"Luzenac - Garanou","latitude":42.7642849,"longitude":1.7531248,"region":"Occitanie","nombrePOI":1},{"nom":"Faremoutiers - Pommeuse","latitude":48.808494,"longitude":2.993109,"region":"Île-de-France","nombrePOI":1},{"nom":"Guérard - La Celle-sur-Morin","latitude":48.810588,"longitude":2.954783,"region":"Île-de-France","nombrePOI":1},{"nom":"Mortcerf","latitude":48.7892191,"longitude":2.9075554,"region":"Île-de-France","nombrePOI":1},{"nom":"Marles-en-Brie","latitude":48.733976,"longitude":2.868099,"region":"Île-de-France","nombrePOI":1},{"nom":"Phalempin","latitude":50.5154,"longitude":3.0199,"region":"Hauts-de-France","nombrePOI":1},{"nom":"Wattignies - Templemars","latitude":50.5793139,"longitude":3.051975,"region":"Hauts-de-France","nombrePOI":1},{"nom":"Ronchin","latitude":50.6045664,"longitude":3.0783734,"region":"Hauts-de-France","nombrePOI":1},{"nom":"Fontaine-le-Port","latitude":48.4871358,"longitude":2.7514043,"region":"Île-de-France","nombrePOI":1},{"nom":"Aubigny-au-Bac","latitude":50.2685315,"longitude":3.158706,"region":"Hauts-de-France","nombrePOI":1},{"nom":"Arleux","latitude":50.2863204,"longitude":3.1208073,"region":"Hauts-de-France","nombrePOI":1},{"nom":"Marcelcave","latitude":49.8532165,"longitude":2.5819031,"region":"Hauts-de-France","nombrePOI":1}]